header: 
  seq: 1616651
  stamp: 
    secs: 1512620710
    nsecs: 125786107
  frame_id: ''
name: ['head_pan', 'right_j0', 'right_j1', 'right_j2', 'right_j3', 'right_j4', 'right_j5', 'right_j6', 'torso_t0']
position: [-0.0998505859375, -1.0460302734375, 1.2869541015625, -0.343587890625, -1.6291728515625, -2.08798828125, -0.701947265625, 3.9707255859375, 0.0]
velocity: [-0.001, -0.001, -0.001, -0.001, -0.001, -0.001, -0.001, -0.001, 0.0]
effort: [0.0, 0.848, -25.4, -1.808, -13.864, -1.032, 0.772, -0.012, 0.0]
---
header: 
  seq: 1616652
  stamp: 
    secs: 1512620710
    nsecs: 135792139
  frame_id: ''
name: ['head_pan', 'right_j0', 'right_j1', 'right_j2', 'right_j3', 'right_j4', 'right_j5', 'right_j6', 'torso_t0']
position: [-0.0998505859375, -1.0460302734375, 1.2869541015625, -0.343587890625, -1.6291728515625, -2.08798828125, -0.701947265625, 3.9707255859375, 0.0]
velocity: [-0.001, -0.001, -0.001, -0.001, -0.001, -0.001, -0.001, -0.001, 0.0]
effort: [0.02, 0.796, -25.4, -1.808, -13.888, -1.032, 0.752, -0.024, 0.0]
---
header: 
  seq: 1616653
  stamp: 
    secs: 1512620710
    nsecs: 145798619
  frame_id: ''
name: ['head_pan', 'right_j0', 'right_j1', 'right_j2', 'right_j3', 'right_j4', 'right_j5', 'right_j6', 'torso_t0']
position: [-0.0998505859375, -1.0460302734375, 1.2869541015625, -0.343587890625, -1.6291728515625, -2.08798828125, -0.701947265625, 3.9707255859375, 0.0]
velocity: [-0.001, -0.001, -0.001, -0.001, -0.001, -0.001, -0.001, -0.001, 0.0]
effort: [0.0, 0.744, -25.4, -1.808, -13.932, -1.048, 0.784, -0.024, 0.0]
---
header: 
  seq: 1616654
  stamp: 
    secs: 1512620710
    nsecs: 155798068
  frame_id: ''
name: ['head_pan', 'right_j0', 'right_j1', 'right_j2', 'right_j3', 'right_j4', 'right_j5', 'right_j6', 'torso_t0']
position: [-0.0998505859375, -1.0460302734375, 1.2869541015625, -0.343587890625, -1.6291728515625, -2.08798828125, -0.701947265625, 3.9707255859375, 0.0]
velocity: [-0.001, -0.001, -0.001, -0.001, -0.001, -0.001, -0.001, -0.001, 0.0]
effort: [0.02, 0.796, -25.4, -1.968, -13.864, -1.02, 0.784, -0.016, 0.0]
---
header: 
  seq: 1616655
  stamp: 
    secs: 1512620710
    nsecs: 165809144
  frame_id: ''
name: ['head_pan', 'right_j0', 'right_j1', 'right_j2', 'right_j3', 'right_j4', 'right_j5', 'right_j6', 'torso_t0']
position: [-0.0998505859375, -1.0460302734375, 1.2869541015625, -0.343587890625, -1.6291728515625, -2.08798828125, -0.701947265625, 3.9707255859375, 0.0]
velocity: [-0.001, -0.001, -0.001, -0.001, -0.001, -0.001, -0.001, -0.001, 0.0]
effort: [0.076, 0.744, -25.452, -1.944, -13.864, -1.04, 0.752, -0.036, 0.0]
---
header: 
  seq: 1616656
  stamp: 
    secs: 1512620710
    nsecs: 175836858
  frame_id: ''
name: ['head_pan', 'right_j0', 'right_j1', 'right_j2', 'right_j3', 'right_j4', 'right_j5', 'right_j6', 'torso_t0']
position: [-0.0998505859375, -1.0460302734375, 1.2869541015625, -0.343587890625, -1.6291728515625, -2.08798828125, -0.701947265625, 3.9707255859375, 0.0]
velocity: [-0.001, -0.001, -0.001, -0.001, -0.001, -0.001, -0.001, -0.001, 0.0]
effort: [0.0, 0.688, -25.452, -1.968, -13.888, -1.052, 0.784, -0.032, 0.0]
---
header: 
  seq: 1616657
  stamp: 
    secs: 1512620710
    nsecs: 185831310
  frame_id: ''
name: ['head_pan', 'right_j0', 'right_j1', 'right_j2', 'right_j3', 'right_j4', 'right_j5', 'right_j6', 'torso_t0']
position: [-0.0998505859375, -1.0460302734375, 1.2869541015625, -0.343587890625, -1.6291728515625, -2.08798828125, -0.701947265625, 3.9707255859375, 0.0]
velocity: [-0.001, -0.001, -0.001, -0.001, -0.001, -0.001, -0.001, -0.001, 0.0]
effort: [0.02, 0.848, -25.4, -1.9, -13.864, -1.04, 0.76, -0.036, 0.0]
---
header: 
  seq: 1616658
  stamp: 
    secs: 1512620710
    nsecs: 195782656
  frame_id: ''
name: ['head_pan', 'right_j0', 'right_j1', 'right_j2', 'right_j3', 'right_j4', 'right_j5', 'right_j6', 'torso_t0']
position: [-0.0998505859375, -1.0460302734375, 1.2869541015625, -0.343587890625, -1.6291728515625, -2.08798828125, -0.701947265625, 3.9707255859375, 0.0]
velocity: [-0.001, -0.001, -0.001, -0.001, -0.001, -0.001, -0.001, -0.001, 0.0]
effort: [0.008, 0.848, -25.4, -1.9, -13.844, -1.028, 0.76, -0.032, 0.0]
---
header: 
  seq: 1616659
  stamp: 
    secs: 1512620710
    nsecs: 205806079
  frame_id: ''
name: ['head_pan', 'right_j0', 'right_j1', 'right_j2', 'right_j3', 'right_j4', 'right_j5', 'right_j6', 'torso_t0']
position: [-0.0998505859375, -1.0460302734375, 1.2869541015625, -0.343587890625, -1.6291728515625, -2.08798828125, -0.701947265625, 3.9707255859375, 0.0]
velocity: [-0.001, -0.001, -0.001, -0.001, -0.001, -0.001, -0.001, -0.001, 0.0]
effort: [0.0, 0.796, -25.348, -1.968, -13.912, -1.032, 0.8, -0.004, 0.0]
---
header: 
  seq: 1616660
  stamp: 
    secs: 1512620710
    nsecs: 215801332
  frame_id: ''
name: ['head_pan', 'right_j0', 'right_j1', 'right_j2', 'right_j3', 'right_j4', 'right_j5', 'right_j6', 'torso_t0']
position: [-0.0998505859375, -1.0460302734375, 1.2869541015625, -0.343587890625, -1.6291728515625, -2.08798828125, -0.701947265625, 3.9707255859375, 0.0]
velocity: [-0.001, -0.001, -0.001, -0.001, -0.001, -0.001, -0.001, -0.001, 0.0]
effort: [-0.044, 0.796, -25.292, -1.856, -13.864, -1.032, 0.768, -0.016, 0.0]
---
header: 
  seq: 1616661
  stamp: 
    secs: 1512620710
    nsecs: 225764342
  frame_id: ''
name: ['head_pan', 'right_j0', 'right_j1', 'right_j2', 'right_j3', 'right_j4', 'right_j5', 'right_j6', 'torso_t0']
position: [-0.0998505859375, -1.0460302734375, 1.2869541015625, -0.343587890625, -1.6291728515625, -2.08798828125, -0.701947265625, 3.9707255859375, 0.0]
velocity: [-0.001, -0.001, -0.001, -0.001, -0.001, -0.001, -0.001, -0.001, 0.0]
effort: [-0.02, 0.848, -25.348, -1.876, -13.864, -1.012, 0.78, -0.032, 0.0]
---
header: 
  seq: 1616662
  stamp: 
    secs: 1512620710
    nsecs: 235811301
  frame_id: ''
name: ['head_pan', 'right_j0', 'right_j1', 'right_j2', 'right_j3', 'right_j4', 'right_j5', 'right_j6', 'torso_t0']
position: [-0.0998505859375, -1.0460302734375, 1.2869541015625, -0.343587890625, -1.6291728515625, -2.08798828125, -0.701947265625, 3.9707255859375, 0.0]
velocity: [-0.001, -0.001, -0.001, -0.001, -0.001, -0.001, -0.001, -0.001, 0.0]
effort: [0.02, 0.796, -25.504, -1.968, -13.844, -1.052, 0.76, -0.044, 0.0]
---
header: 
  seq: 1616663
  stamp: 
    secs: 1512620710
    nsecs: 245798319
  frame_id: ''
name: ['head_pan', 'right_j0', 'right_j1', 'right_j2', 'right_j3', 'right_j4', 'right_j5', 'right_j6', 'torso_t0']
position: [-0.0998505859375, -1.0460302734375, 1.2869541015625, -0.343587890625, -1.6291728515625, -2.08798828125, -0.701947265625, 3.9707255859375, 0.0]
velocity: [-0.001, -0.001, -0.001, -0.001, -0.001, -0.001, -0.001, -0.001, 0.0]
effort: [-0.02, 0.796, -25.292, -1.856, -13.888, -1.04, 0.768, -0.004, 0.0]
---
header: 
  seq: 1616664
  stamp: 
    secs: 1512620710
    nsecs: 255793368
  frame_id: ''
name: ['head_pan', 'right_j0', 'right_j1', 'right_j2', 'right_j3', 'right_j4', 'right_j5', 'right_j6', 'torso_t0']
position: [-0.0998505859375, -1.0460302734375, 1.2869541015625, -0.343587890625, -1.6291728515625, -2.08798828125, -0.701947265625, 3.9707255859375, 0.0]
velocity: [-0.001, -0.001, -0.001, -0.001, -0.001, -0.001, -0.001, -0.001, 0.0]
effort: [0.008, 0.796, -25.348, -1.92, -13.956, -1.04, 0.792, -0.036, 0.0]
---
header: 
  seq: 1616665
  stamp: 
    secs: 1512620710
    nsecs: 265764334
  frame_id: ''
name: ['head_pan', 'right_j0', 'right_j1', 'right_j2', 'right_j3', 'right_j4', 'right_j5', 'right_j6', 'torso_t0']
position: [-0.0998505859375, -1.0460302734375, 1.2869541015625, -0.343587890625, -1.6291728515625, -2.08798828125, -0.701947265625, 3.9707255859375, 0.0]
velocity: [-0.001, -0.001, -0.001, -0.001, -0.001, -0.001, -0.001, -0.001, 0.0]
effort: [0.032, 0.848, -25.452, -1.988, -13.752, -1.028, 0.768, -0.044, 0.0]
---
header: 
  seq: 1616666
  stamp: 
    secs: 1512620710
    nsecs: 275777854
  frame_id: ''
name: ['head_pan', 'right_j0', 'right_j1', 'right_j2', 'right_j3', 'right_j4', 'right_j5', 'right_j6', 'torso_t0']
position: [-0.0998505859375, -1.0460302734375, 1.2869541015625, -0.343587890625, -1.6291728515625, -2.08798828125, -0.701947265625, 3.9707255859375, 0.0]
velocity: [-0.001, -0.001, -0.001, -0.001, -0.001, -0.001, -0.001, -0.001, 0.0]
effort: [0.02, 0.796, -25.4, -1.9, -13.82, -1.02, 0.792, -0.024, 0.0]
---
header: 
  seq: 1616667
  stamp: 
    secs: 1512620710
    nsecs: 285817162
  frame_id: ''
name: ['head_pan', 'right_j0', 'right_j1', 'right_j2', 'right_j3', 'right_j4', 'right_j5', 'right_j6', 'torso_t0']
position: [-0.0998505859375, -1.0460302734375, 1.2869541015625, -0.343587890625, -1.6291728515625, -2.08798828125, -0.701947265625, 3.9707255859375, 0.0]
velocity: [-0.001, -0.001, -0.001, -0.001, -0.001, -0.001, -0.001, -0.001, 0.0]
effort: [0.064, 0.796, -25.348, -1.832, -13.888, -1.028, 0.804, -0.012, 0.0]
---
header: 
  seq: 1616668
  stamp: 
    secs: 1512620710
    nsecs: 295806127
  frame_id: ''
name: ['head_pan', 'right_j0', 'right_j1', 'right_j2', 'right_j3', 'right_j4', 'right_j5', 'right_j6', 'torso_t0']
position: [-0.0998505859375, -1.0460302734375, 1.2869541015625, -0.343587890625, -1.6291728515625, -2.08798828125, -0.701947265625, 3.9707255859375, 0.0]
velocity: [-0.001, -0.001, -0.001, -0.001, -0.001, -0.001, -0.001, -0.001, 0.0]
effort: [0.008, 0.796, -25.4, -1.988, -13.888, -1.04, 0.768, -0.012, 0.0]
---
header: 
  seq: 1616669
  stamp: 
    secs: 1512620710
    nsecs: 305778888
  frame_id: ''
name: ['head_pan', 'right_j0', 'right_j1', 'right_j2', 'right_j3', 'right_j4', 'right_j5', 'right_j6', 'torso_t0']
position: [-0.0998505859375, -1.0460302734375, 1.2869541015625, -0.343587890625, -1.6291728515625, -2.08798828125, -0.701947265625, 3.9707255859375, 0.0]
velocity: [-0.001, -0.001, -0.001, -0.001, -0.001, -0.001, -0.001, -0.001, 0.0]
effort: [0.0, 0.796, -25.348, -1.944, -13.776, -1.048, 0.792, -0.016, 0.0]
---
header: 
  seq: 1616670
  stamp: 
    secs: 1512620710
    nsecs: 315762216
  frame_id: ''
name: ['head_pan', 'right_j0', 'right_j1', 'right_j2', 'right_j3', 'right_j4', 'right_j5', 'right_j6', 'torso_t0']
position: [-0.0998505859375, -1.0460302734375, 1.2869541015625, -0.343587890625, -1.6291728515625, -2.08798828125, -0.701947265625, 3.9707255859375, 0.0]
velocity: [-0.001, -0.001, -0.001, -0.001, -0.001, -0.001, -0.001, -0.001, 0.0]
effort: [0.0, 0.744, -25.452, -1.92, -13.888, -1.032, 0.76, -0.012, 0.0]
---
header: 
  seq: 1616671
  stamp: 
    secs: 1512620710
    nsecs: 325829313
  frame_id: ''
name: ['head_pan', 'right_j0', 'right_j1', 'right_j2', 'right_j3', 'right_j4', 'right_j5', 'right_j6', 'torso_t0']
position: [-0.0998505859375, -1.0460302734375, 1.2869541015625, -0.343587890625, -1.6291728515625, -2.08798828125, -0.701947265625, 3.9707255859375, 0.0]
velocity: [-0.001, -0.001, -0.001, -0.001, -0.001, -0.001, -0.001, -0.001, 0.0]
effort: [0.0, 0.796, -25.4, -1.9, -13.912, -1.032, 0.78, 0.0, 0.0]
---
header: 
  seq: 1616672
  stamp: 
    secs: 1512620710
    nsecs: 335774115
  frame_id: ''
name: ['head_pan', 'right_j0', 'right_j1', 'right_j2', 'right_j3', 'right_j4', 'right_j5', 'right_j6', 'torso_t0']
position: [-0.0998505859375, -1.0460302734375, 1.2869541015625, -0.343587890625, -1.6291728515625, -2.08798828125, -0.701947265625, 3.9707255859375, 0.0]
velocity: [-0.001, -0.001, -0.001, -0.001, -0.001, -0.001, -0.001, -0.001, 0.0]
effort: [-0.012, 0.744, -25.504, -1.9, -13.82, -1.048, 0.74, -0.004, 0.0]
---
header: 
  seq: 1616673
  stamp: 
    secs: 1512620710
    nsecs: 345795233
  frame_id: ''
name: ['head_pan', 'right_j0', 'right_j1', 'right_j2', 'right_j3', 'right_j4', 'right_j5', 'right_j6', 'torso_t0']
position: [-0.0998505859375, -1.0460302734375, 1.2869541015625, -0.343587890625, -1.6291728515625, -2.08798828125, -0.701947265625, 3.9707255859375, 0.0]
velocity: [-0.001, -0.001, -0.001, -0.001, -0.001, -0.001, -0.001, -0.001, 0.0]
effort: [-0.012, 0.744, -25.348, -1.92, -13.752, -1.028, 0.772, -0.036, 0.0]
---
header: 
  seq: 1616674
  stamp: 
    secs: 1512620710
    nsecs: 355790552
  frame_id: ''
name: ['head_pan', 'right_j0', 'right_j1', 'right_j2', 'right_j3', 'right_j4', 'right_j5', 'right_j6', 'torso_t0']
position: [-0.0998505859375, -1.0460302734375, 1.2869541015625, -0.343587890625, -1.6291728515625, -2.08798828125, -0.701947265625, 3.9707255859375, 0.0]
velocity: [-0.001, -0.001, -0.001, -0.001, -0.001, -0.001, -0.001, -0.001, 0.0]
effort: [-0.012, 0.848, -25.348, -1.9, -13.864, -1.032, 0.78, -0.024, 0.0]
---
header: 
  seq: 1616675
  stamp: 
    secs: 1512620710
    nsecs: 365787210
  frame_id: ''
name: ['head_pan', 'right_j0', 'right_j1', 'right_j2', 'right_j3', 'right_j4', 'right_j5', 'right_j6', 'torso_t0']
position: [-0.0998505859375, -1.0460302734375, 1.2869541015625, -0.343587890625, -1.6291728515625, -2.08798828125, -0.701947265625, 3.9707255859375, 0.0]
velocity: [-0.001, -0.001, -0.001, -0.001, -0.001, -0.001, -0.001, -0.001, 0.0]
effort: [0.0, 0.848, -25.452, -1.92, -13.732, -1.048, 0.76, -0.032, 0.0]
---
header: 
  seq: 1616676
  stamp: 
    secs: 1512620710
    nsecs: 375791094
  frame_id: ''
name: ['head_pan', 'right_j0', 'right_j1', 'right_j2', 'right_j3', 'right_j4', 'right_j5', 'right_j6', 'torso_t0']
position: [-0.0998505859375, -1.0460302734375, 1.2869541015625, -0.343587890625, -1.6291728515625, -2.08798828125, -0.701947265625, 3.9707255859375, 0.0]
velocity: [-0.001, -0.001, -0.001, -0.001, -0.001, -0.001, -0.001, -0.001, 0.0]
effort: [0.0, 0.796, -25.348, -1.876, -13.888, -0.996, 0.82, 0.0, 0.0]
---
header: 
  seq: 1616677
  stamp: 
    secs: 1512620710
    nsecs: 385792606
  frame_id: ''
name: ['head_pan', 'right_j0', 'right_j1', 'right_j2', 'right_j3', 'right_j4', 'right_j5', 'right_j6', 'torso_t0']
position: [-0.0998505859375, -1.0460302734375, 1.2869541015625, -0.343587890625, -1.6291728515625, -2.08798828125, -0.701947265625, 3.9707255859375, 0.0]
velocity: [-0.001, -0.001, -0.001, -0.001, -0.001, -0.001, -0.001, -0.001, 0.0]
effort: [0.02, 0.796, -25.4, -1.944, -13.752, -1.048, 0.792, -0.024, 0.0]
---
header: 
  seq: 1616678
  stamp: 
    secs: 1512620710
    nsecs: 395824263
  frame_id: ''
name: ['head_pan', 'right_j0', 'right_j1', 'right_j2', 'right_j3', 'right_j4', 'right_j5', 'right_j6', 'torso_t0']
position: [-0.0998505859375, -1.0460302734375, 1.2869541015625, -0.343587890625, -1.6291728515625, -2.08798828125, -0.701947265625, 3.9707255859375, 0.0]
velocity: [-0.001, -0.001, -0.001, -0.001, -0.001, -0.001, -0.001, -0.001, 0.0]
effort: [0.052, 0.744, -25.348, -1.832, -13.844, -1.048, 0.78, -0.016, 0.0]
---
header: 
  seq: 1616679
  stamp: 
    secs: 1512620710
    nsecs: 405803754
  frame_id: ''
name: ['head_pan', 'right_j0', 'right_j1', 'right_j2', 'right_j3', 'right_j4', 'right_j5', 'right_j6', 'torso_t0']
position: [-0.0998505859375, -1.0460302734375, 1.2869541015625, -0.343587890625, -1.6291728515625, -2.08798828125, -0.701947265625, 3.9707255859375, 0.0]
velocity: [-0.001, -0.001, -0.001, -0.001, -0.001, -0.001, -0.001, -0.001, 0.0]
effort: [0.064, 0.744, -25.348, -1.988, -13.844, -1.032, 0.792, -0.032, 0.0]
---
header: 
  seq: 1616680
  stamp: 
    secs: 1512620710
    nsecs: 415771367
  frame_id: ''
name: ['head_pan', 'right_j0', 'right_j1', 'right_j2', 'right_j3', 'right_j4', 'right_j5', 'right_j6', 'torso_t0']
position: [-0.0998505859375, -1.0460302734375, 1.2869541015625, -0.343587890625, -1.6291728515625, -2.08798828125, -0.701947265625, 3.9707255859375, 0.0]
velocity: [-0.001, -0.001, -0.001, -0.001, -0.001, -0.001, -0.001, -0.001, 0.0]
effort: [0.008, 0.796, -25.452, -1.856, -13.776, -1.032, 0.772, -0.004, 0.0]
---
header: 
  seq: 1616681
  stamp: 
    secs: 1512620710
    nsecs: 425786997
  frame_id: ''
name: ['head_pan', 'right_j0', 'right_j1', 'right_j2', 'right_j3', 'right_j4', 'right_j5', 'right_j6', 'torso_t0']
position: [-0.0998505859375, -1.0460302734375, 1.2869541015625, -0.343587890625, -1.6291728515625, -2.08798828125, -0.701947265625, 3.9707255859375, 0.0]
velocity: [-0.001, -0.001, -0.001, -0.001, -0.001, -0.001, -0.001, -0.001, 0.0]
effort: [0.02, 0.848, -25.4, -1.944, -13.776, -1.028, 0.804, -0.004, 0.0]
---
header: 
  seq: 1616682
  stamp: 
    secs: 1512620710
    nsecs: 435797104
  frame_id: ''
name: ['head_pan', 'right_j0', 'right_j1', 'right_j2', 'right_j3', 'right_j4', 'right_j5', 'right_j6', 'torso_t0']
position: [-0.0998505859375, -1.0460302734375, 1.2869541015625, -0.343587890625, -1.6291728515625, -2.08798828125, -0.701947265625, 3.9707255859375, 0.0]
velocity: [-0.001, -0.001, -0.001, -0.001, -0.001, -0.001, -0.001, -0.001, 0.0]
effort: [0.0, 0.744, -25.348, -1.988, -13.864, -1.04, 0.768, -0.032, 0.0]
---
header: 
  seq: 1616683
  stamp: 
    secs: 1512620710
    nsecs: 445809031
  frame_id: ''
name: ['head_pan', 'right_j0', 'right_j1', 'right_j2', 'right_j3', 'right_j4', 'right_j5', 'right_j6', 'torso_t0']
position: [-0.0998505859375, -1.0460302734375, 1.2869541015625, -0.343587890625, -1.6291728515625, -2.08798828125, -0.701947265625, 3.9707255859375, 0.0]
velocity: [-0.001, -0.001, -0.001, -0.001, -0.001, -0.001, -0.001, -0.001, 0.0]
effort: [0.008, 0.796, -25.348, -1.856, -13.82, -1.04, 0.784, -0.016, 0.0]
---
header: 
  seq: 1616684
  stamp: 
    secs: 1512620710
    nsecs: 455814866
  frame_id: ''
name: ['head_pan', 'right_j0', 'right_j1', 'right_j2', 'right_j3', 'right_j4', 'right_j5', 'right_j6', 'torso_t0']
position: [-0.0998505859375, -1.0460302734375, 1.2869541015625, -0.343587890625, -1.6291728515625, -2.08798828125, -0.701947265625, 3.9707255859375, 0.0]
velocity: [-0.001, -0.001, -0.001, -0.001, -0.001, -0.001, -0.001, -0.001, 0.0]
effort: [-0.032, 0.848, -25.292, -1.9, -13.888, -1.048, 0.8, -0.016, 0.0]
---
header: 
  seq: 1616685
  stamp: 
    secs: 1512620710
    nsecs: 465810930
  frame_id: ''
name: ['head_pan', 'right_j0', 'right_j1', 'right_j2', 'right_j3', 'right_j4', 'right_j5', 'right_j6', 'torso_t0']
position: [-0.0998505859375, -1.0460302734375, 1.2869541015625, -0.343587890625, -1.6291728515625, -2.08798828125, -0.701947265625, 3.9707255859375, 0.0]
velocity: [-0.001, -0.001, -0.001, -0.001, -0.001, -0.001, -0.001, -0.001, 0.0]
effort: [0.0, 0.796, -25.348, -1.788, -13.8, -1.048, 0.772, -0.032, 0.0]
---
header: 
  seq: 1616686
  stamp: 
    secs: 1512620710
    nsecs: 475762095
  frame_id: ''
name: ['head_pan', 'right_j0', 'right_j1', 'right_j2', 'right_j3', 'right_j4', 'right_j5', 'right_j6', 'torso_t0']
position: [-0.0998505859375, -1.0460302734375, 1.2869541015625, -0.343587890625, -1.6291728515625, -2.08798828125, -0.701947265625, 3.9707255859375, 0.0]
velocity: [-0.001, -0.001, -0.001, -0.001, -0.001, -0.001, -0.001, -0.001, 0.0]
effort: [0.008, 0.744, -25.452, -1.92, -13.8, -1.04, 0.772, -0.012, 0.0]
---
header: 
  seq: 1616687
  stamp: 
    secs: 1512620710
    nsecs: 485776398
  frame_id: ''
name: ['head_pan', 'right_j0', 'right_j1', 'right_j2', 'right_j3', 'right_j4', 'right_j5', 'right_j6', 'torso_t0']
position: [-0.0998505859375, -1.0460302734375, 1.2869541015625, -0.343587890625, -1.6291728515625, -2.08798828125, -0.701947265625, 3.9707255859375, 0.0]
velocity: [-0.001, -0.001, -0.001, -0.001, -0.001, -0.001, -0.001, -0.001, 0.0]
effort: [-0.012, 0.796, -25.348, -1.944, -13.82, -1.052, 0.768, -0.016, 0.0]
---
header: 
  seq: 1616688
  stamp: 
    secs: 1512620710
    nsecs: 495775834
  frame_id: ''
name: ['head_pan', 'right_j0', 'right_j1', 'right_j2', 'right_j3', 'right_j4', 'right_j5', 'right_j6', 'torso_t0']
position: [-0.0998505859375, -1.0460302734375, 1.2869541015625, -0.343587890625, -1.6291728515625, -2.08798828125, -0.701947265625, 3.9707255859375, 0.0]
velocity: [-0.001, -0.001, -0.001, -0.001, -0.001, -0.001, -0.001, -0.001, 0.0]
effort: [0.0, 0.848, -25.4, -1.856, -13.912, -1.048, 0.804, -0.016, 0.0]
---
header: 
  seq: 1616689
  stamp: 
    secs: 1512620710
    nsecs: 505790341
  frame_id: ''
name: ['head_pan', 'right_j0', 'right_j1', 'right_j2', 'right_j3', 'right_j4', 'right_j5', 'right_j6', 'torso_t0']
position: [-0.0998505859375, -1.0460302734375, 1.2869541015625, -0.343587890625, -1.6291728515625, -2.08798828125, -0.701947265625, 3.9707255859375, 0.0]
velocity: [-0.001, -0.001, -0.001, -0.001, -0.001, -0.001, -0.001, -0.001, 0.0]
effort: [0.04, 0.796, -25.4, -1.876, -13.844, -1.048, 0.732, -0.004, 0.0]
---
header: 
  seq: 1616690
  stamp: 
    secs: 1512620710
    nsecs: 515788489
  frame_id: ''
name: ['head_pan', 'right_j0', 'right_j1', 'right_j2', 'right_j3', 'right_j4', 'right_j5', 'right_j6', 'torso_t0']
position: [-0.0998505859375, -1.0460302734375, 1.2869541015625, -0.343587890625, -1.6291728515625, -2.08798828125, -0.701947265625, 3.9707255859375, 0.0]
velocity: [-0.001, -0.001, -0.001, -0.001, -0.001, -0.001, -0.001, -0.001, 0.0]
effort: [0.064, 0.796, -25.4, -1.876, -13.888, -1.032, 0.792, -0.016, 0.0]
---
header: 
  seq: 1616691
  stamp: 
    secs: 1512620710
    nsecs: 526610654
  frame_id: ''
name: ['head_pan', 'right_j0', 'right_j1', 'right_j2', 'right_j3', 'right_j4', 'right_j5', 'right_j6', 'torso_t0']
position: [-0.0998505859375, -1.0460302734375, 1.2869541015625, -0.343587890625, -1.6291728515625, -2.08798828125, -0.701947265625, 3.9707255859375, 0.0]
velocity: [-0.001, -0.001, -0.001, -0.001, -0.001, -0.001, -0.001, -0.001, 0.0]
effort: [0.032, 0.796, -25.348, -1.92, -13.864, -1.064, 0.76, -0.032, 0.0]
---
header: 
  seq: 1616692
  stamp: 
    secs: 1512620710
    nsecs: 536601137
  frame_id: ''
name: ['head_pan', 'right_j0', 'right_j1', 'right_j2', 'right_j3', 'right_j4', 'right_j5', 'right_j6', 'torso_t0']
position: [-0.0998505859375, -1.0460302734375, 1.2869541015625, -0.343587890625, -1.6291728515625, -2.08798828125, -0.701947265625, 3.9707255859375, 0.0]
velocity: [-0.001, -0.001, -0.001, -0.001, -0.001, -0.001, -0.001, -0.001, 0.0]
effort: [0.04, 0.848, -25.348, -2.012, -13.912, -1.04, 0.78, -0.032, 0.0]
---
header: 
  seq: 1616693
  stamp: 
    secs: 1512620710
    nsecs: 546615020
  frame_id: ''
name: ['head_pan', 'right_j0', 'right_j1', 'right_j2', 'right_j3', 'right_j4', 'right_j5', 'right_j6', 'torso_t0']
position: [-0.0998505859375, -1.0460302734375, 1.2869541015625, -0.343587890625, -1.6291728515625, -2.08798828125, -0.701947265625, 3.9707255859375, 0.0]
velocity: [-0.001, -0.001, -0.001, -0.001, -0.001, -0.001, -0.001, -0.001, 0.0]
effort: [0.0, 0.796, -25.348, -1.988, -13.844, -1.032, 0.768, -0.036, 0.0]
---
header: 
  seq: 1616694
  stamp: 
    secs: 1512620710
    nsecs: 556598855
  frame_id: ''
name: ['head_pan', 'right_j0', 'right_j1', 'right_j2', 'right_j3', 'right_j4', 'right_j5', 'right_j6', 'torso_t0']
position: [-0.0998505859375, -1.0460302734375, 1.2869541015625, -0.343587890625, -1.6291728515625, -2.08798828125, -0.701947265625, 3.9707255859375, 0.0]
velocity: [-0.001, -0.001, -0.001, -0.001, -0.001, -0.001, -0.001, -0.001, 0.0]
effort: [-0.032, 0.796, -25.4, -1.876, -13.864, -1.028, 0.784, -0.016, 0.0]
---
header: 
  seq: 1616695
  stamp: 
    secs: 1512620710
    nsecs: 566625424
  frame_id: ''
name: ['head_pan', 'right_j0', 'right_j1', 'right_j2', 'right_j3', 'right_j4', 'right_j5', 'right_j6', 'torso_t0']
position: [-0.0998505859375, -1.0460302734375, 1.2869541015625, -0.343587890625, -1.6291728515625, -2.08798828125, -0.701947265625, 3.9707255859375, 0.0]
velocity: [-0.001, -0.001, -0.001, -0.001, -0.001, -0.001, -0.001, -0.001, 0.0]
effort: [0.008, 0.796, -25.4, -1.9, -13.912, -1.0, 0.78, -0.016, 0.0]
---
header: 
  seq: 1616696
  stamp: 
    secs: 1512620710
    nsecs: 576626539
  frame_id: ''
name: ['head_pan', 'right_j0', 'right_j1', 'right_j2', 'right_j3', 'right_j4', 'right_j5', 'right_j6', 'torso_t0']
position: [-0.0998505859375, -1.0460302734375, 1.2869541015625, -0.343587890625, -1.6291728515625, -2.08798828125, -0.701947265625, 3.9707255859375, 0.0]
velocity: [-0.001, -0.001, -0.001, -0.001, -0.001, -0.001, -0.001, -0.001, 0.0]
effort: [0.0, 0.848, -25.292, -1.832, -13.82, -1.06, 0.76, -0.012, 0.0]
---
header: 
  seq: 1616697
  stamp: 
    secs: 1512620710
    nsecs: 586638231
  frame_id: ''
name: ['head_pan', 'right_j0', 'right_j1', 'right_j2', 'right_j3', 'right_j4', 'right_j5', 'right_j6', 'torso_t0']
position: [-0.0998505859375, -1.0460302734375, 1.2869541015625, -0.343587890625, -1.6291728515625, -2.08798828125, -0.701947265625, 3.9707255859375, 0.0]
velocity: [-0.001, -0.001, -0.001, -0.001, -0.001, -0.001, -0.001, -0.001, 0.0]
effort: [0.0, 0.848, -25.4, -1.968, -13.82, -1.032, 0.78, -0.004, 0.0]
---
header: 
  seq: 1616698
  stamp: 
    secs: 1512620710
    nsecs: 596599648
  frame_id: ''
name: ['head_pan', 'right_j0', 'right_j1', 'right_j2', 'right_j3', 'right_j4', 'right_j5', 'right_j6', 'torso_t0']
position: [-0.0998505859375, -1.0460302734375, 1.2869541015625, -0.343587890625, -1.6291728515625, -2.08798828125, -0.701947265625, 3.9707255859375, 0.0]
velocity: [-0.001, -0.001, -0.001, -0.001, -0.001, -0.001, -0.001, -0.001, 0.0]
effort: [0.008, 0.848, -25.348, -1.9, -13.752, -1.032, 0.78, -0.016, 0.0]
---
header: 
  seq: 1616699
  stamp: 
    secs: 1512620710
    nsecs: 606622672
  frame_id: ''
name: ['head_pan', 'right_j0', 'right_j1', 'right_j2', 'right_j3', 'right_j4', 'right_j5', 'right_j6', 'torso_t0']
position: [-0.0998505859375, -1.0460302734375, 1.2869541015625, -0.343587890625, -1.6291728515625, -2.08798828125, -0.701947265625, 3.9707255859375, 0.0]
velocity: [-0.001, -0.001, -0.001, -0.001, -0.001, -0.001, -0.001, -0.001, 0.0]
effort: [0.032, 0.848, -25.4, -1.832, -13.752, -1.048, 0.784, -0.016, 0.0]
---
header: 
  seq: 1616700
  stamp: 
    secs: 1512620710
    nsecs: 616623600
  frame_id: ''
name: ['head_pan', 'right_j0', 'right_j1', 'right_j2', 'right_j3', 'right_j4', 'right_j5', 'right_j6', 'torso_t0']
position: [-0.0998505859375, -1.0460302734375, 1.2869541015625, -0.343587890625, -1.6291728515625, -2.08798828125, -0.701947265625, 3.9707255859375, 0.0]
velocity: [-0.001, -0.001, -0.001, -0.001, -0.001, -0.001, -0.001, -0.001, 0.0]
effort: [0.04, 0.744, -25.4, -1.764, -13.82, -1.032, 0.784, 0.0, 0.0]
---
header: 
  seq: 1616701
  stamp: 
    secs: 1512620710
    nsecs: 626618019
  frame_id: ''
name: ['head_pan', 'right_j0', 'right_j1', 'right_j2', 'right_j3', 'right_j4', 'right_j5', 'right_j6', 'torso_t0']
position: [-0.0998505859375, -1.0460302734375, 1.2869541015625, -0.343587890625, -1.6291728515625, -2.08798828125, -0.701947265625, 3.9707255859375, 0.0]
velocity: [-0.001, -0.001, -0.001, -0.001, -0.001, -0.001, -0.001, -0.001, 0.0]
effort: [0.032, 0.796, -25.348, -1.808, -13.752, -1.06, 0.804, -0.004, 0.0]
---
header: 
  seq: 1616702
  stamp: 
    secs: 1512620710
    nsecs: 636614594
  frame_id: ''
name: ['head_pan', 'right_j0', 'right_j1', 'right_j2', 'right_j3', 'right_j4', 'right_j5', 'right_j6', 'torso_t0']
position: [-0.0998505859375, -1.0460302734375, 1.2869541015625, -0.343587890625, -1.6291728515625, -2.08798828125, -0.701947265625, 3.9707255859375, 0.0]
velocity: [-0.001, -0.001, -0.001, -0.001, -0.001, -0.001, -0.001, -0.001, 0.0]
effort: [0.008, 0.796, -25.452, -1.92, -13.776, -1.052, 0.804, -0.036, 0.0]
---
header: 
  seq: 1616703
  stamp: 
    secs: 1512620710
    nsecs: 646614601
  frame_id: ''
name: ['head_pan', 'right_j0', 'right_j1', 'right_j2', 'right_j3', 'right_j4', 'right_j5', 'right_j6', 'torso_t0']
position: [-0.0998505859375, -1.0460302734375, 1.2869541015625, -0.343587890625, -1.6291728515625, -2.08798828125, -0.701947265625, 3.9707255859375, 0.0]
velocity: [-0.001, -0.001, -0.001, -0.001, -0.001, -0.001, -0.001, -0.001, 0.0]
effort: [0.02, 0.848, -25.4, -1.9, -13.844, -1.048, 0.768, -0.016, 0.0]
---
header: 
  seq: 1616704
  stamp: 
    secs: 1512620710
    nsecs: 656614595
  frame_id: ''
name: ['head_pan', 'right_j0', 'right_j1', 'right_j2', 'right_j3', 'right_j4', 'right_j5', 'right_j6', 'torso_t0']
position: [-0.0998505859375, -1.0460302734375, 1.2869541015625, -0.343587890625, -1.6291728515625, -2.08798828125, -0.701947265625, 3.9707255859375, 0.0]
velocity: [-0.001, -0.001, -0.001, -0.001, -0.001, -0.001, -0.001, -0.001, 0.0]
effort: [0.0, 0.796, -25.452, -1.9, -13.708, -1.028, 0.752, 0.004, 0.0]
---
header: 
  seq: 1616705
  stamp: 
    secs: 1512620710
    nsecs: 666615587
  frame_id: ''
name: ['head_pan', 'right_j0', 'right_j1', 'right_j2', 'right_j3', 'right_j4', 'right_j5', 'right_j6', 'torso_t0']
position: [-0.0998505859375, -1.0460302734375, 1.2869541015625, -0.343587890625, -1.6291728515625, -2.08798828125, -0.701947265625, 3.9707255859375, 0.0]
velocity: [-0.001, -0.001, -0.001, -0.001, -0.001, -0.001, -0.001, -0.001, 0.0]
effort: [-0.02, 0.848, -25.348, -1.92, -13.888, -1.012, 0.772, -0.016, 0.0]
---
header: 
  seq: 1616706
  stamp: 
    secs: 1512620710
    nsecs: 676613673
  frame_id: ''
name: ['head_pan', 'right_j0', 'right_j1', 'right_j2', 'right_j3', 'right_j4', 'right_j5', 'right_j6', 'torso_t0']
position: [-0.0998505859375, -1.0460302734375, 1.2869541015625, -0.343587890625, -1.6291728515625, -2.08798828125, -0.701947265625, 3.9707255859375, 0.0]
velocity: [-0.001, -0.001, -0.001, -0.001, -0.001, -0.001, -0.001, -0.001, 0.0]
effort: [-0.032, 0.744, -25.292, -1.968, -13.864, -1.048, 0.8, 0.0, 0.0]
---
header: 
  seq: 1616707
  stamp: 
    secs: 1512620710
    nsecs: 686606139
  frame_id: ''
name: ['head_pan', 'right_j0', 'right_j1', 'right_j2', 'right_j3', 'right_j4', 'right_j5', 'right_j6', 'torso_t0']
position: [-0.0998505859375, -1.0460302734375, 1.2869541015625, -0.343587890625, -1.6291728515625, -2.08798828125, -0.701947265625, 3.9707255859375, 0.0]
velocity: [-0.001, -0.001, -0.001, -0.001, -0.001, -0.001, -0.001, -0.001, 0.0]
effort: [-0.02, 0.848, -25.348, -1.9, -13.912, -1.04, 0.772, -0.016, 0.0]
---
header: 
  seq: 1616708
  stamp: 
    secs: 1512620710
    nsecs: 696631447
  frame_id: ''
name: ['head_pan', 'right_j0', 'right_j1', 'right_j2', 'right_j3', 'right_j4', 'right_j5', 'right_j6', 'torso_t0']
position: [-0.0998505859375, -1.0460302734375, 1.2869541015625, -0.343587890625, -1.6291728515625, -2.08798828125, -0.701947265625, 3.9707255859375, 0.0]
velocity: [-0.001, -0.001, -0.001, -0.001, -0.001, -0.001, -0.001, -0.001, 0.0]
effort: [0.008, 0.744, -25.348, -1.808, -13.8, -1.032, 0.772, -0.012, 0.0]
---
header: 
  seq: 1616709
  stamp: 
    secs: 1512620710
    nsecs: 706636121
  frame_id: ''
name: ['head_pan', 'right_j0', 'right_j1', 'right_j2', 'right_j3', 'right_j4', 'right_j5', 'right_j6', 'torso_t0']
position: [-0.0998505859375, -1.0460302734375, 1.2869541015625, -0.343587890625, -1.6291728515625, -2.08798828125, -0.701947265625, 3.9707255859375, 0.0]
velocity: [-0.001, -0.001, -0.001, -0.001, -0.001, -0.001, -0.001, -0.001, 0.0]
effort: [0.008, 0.796, -25.452, -1.856, -13.864, -1.02, 0.824, -0.016, 0.0]
---
header: 
  seq: 1616710
  stamp: 
    secs: 1512620710
    nsecs: 716598836
  frame_id: ''
name: ['head_pan', 'right_j0', 'right_j1', 'right_j2', 'right_j3', 'right_j4', 'right_j5', 'right_j6', 'torso_t0']
position: [-0.0998505859375, -1.0460302734375, 1.2869541015625, -0.343587890625, -1.6291728515625, -2.08798828125, -0.701947265625, 3.9707255859375, 0.0]
velocity: [-0.001, -0.001, -0.001, -0.001, -0.001, -0.001, -0.001, -0.001, 0.0]
effort: [0.008, 0.796, -25.348, -1.832, -13.888, -1.032, 0.772, -0.024, 0.0]
---
header: 
  seq: 1616711
  stamp: 
    secs: 1512620710
    nsecs: 726660648
  frame_id: ''
name: ['head_pan', 'right_j0', 'right_j1', 'right_j2', 'right_j3', 'right_j4', 'right_j5', 'right_j6', 'torso_t0']
position: [-0.0998505859375, -1.0460302734375, 1.2869541015625, -0.343587890625, -1.6291728515625, -2.08798828125, -0.701947265625, 3.9707255859375, 0.0]
velocity: [-0.001, -0.001, -0.001, -0.001, -0.001, -0.001, -0.001, -0.001, 0.0]
effort: [0.0, 0.744, -25.348, -1.856, -13.932, -1.032, 0.772, -0.012, 0.0]
---
header: 
  seq: 1616712
  stamp: 
    secs: 1512620710
    nsecs: 736642210
  frame_id: ''
name: ['head_pan', 'right_j0', 'right_j1', 'right_j2', 'right_j3', 'right_j4', 'right_j5', 'right_j6', 'torso_t0']
position: [-0.0998505859375, -1.0460302734375, 1.2869541015625, -0.343587890625, -1.6291728515625, -2.08798828125, -0.701947265625, 3.9707255859375, 0.0]
velocity: [-0.001, -0.001, -0.001, -0.001, -0.001, -0.001, -0.001, -0.001, 0.0]
effort: [0.064, 0.848, -25.4, -1.876, -13.888, -1.032, 0.784, -0.012, 0.0]
---
header: 
  seq: 1616713
  stamp: 
    secs: 1512620710
    nsecs: 746637244
  frame_id: ''
name: ['head_pan', 'right_j0', 'right_j1', 'right_j2', 'right_j3', 'right_j4', 'right_j5', 'right_j6', 'torso_t0']
position: [-0.0998505859375, -1.0460302734375, 1.2869541015625, -0.343587890625, -1.6291728515625, -2.08798828125, -0.701947265625, 3.9707255859375, 0.0]
velocity: [-0.001, -0.001, -0.001, -0.001, -0.001, -0.001, -0.001, -0.001, 0.0]
effort: [0.04, 0.848, -25.4, -1.944, -13.8, -1.048, 0.784, -0.012, 0.0]
---
header: 
  seq: 1616714
  stamp: 
    secs: 1512620710
    nsecs: 756629056
  frame_id: ''
name: ['head_pan', 'right_j0', 'right_j1', 'right_j2', 'right_j3', 'right_j4', 'right_j5', 'right_j6', 'torso_t0']
position: [-0.0998505859375, -1.0460302734375, 1.2869541015625, -0.343587890625, -1.6291728515625, -2.08798828125, -0.701947265625, 3.9707255859375, 0.0]
velocity: [-0.001, -0.001, -0.001, -0.001, -0.001, -0.001, -0.001, -0.001, 0.0]
effort: [0.032, 0.848, -25.348, -1.876, -13.888, -1.04, 0.8, -0.024, 0.0]
---
header: 
  seq: 1616715
  stamp: 
    secs: 1512620710
    nsecs: 766626046
  frame_id: ''
name: ['head_pan', 'right_j0', 'right_j1', 'right_j2', 'right_j3', 'right_j4', 'right_j5', 'right_j6', 'torso_t0']
position: [-0.0998505859375, -1.0460302734375, 1.2869541015625, -0.343587890625, -1.6291728515625, -2.08798828125, -0.701947265625, 3.9707255859375, 0.0]
velocity: [-0.001, -0.001, -0.001, -0.001, -0.001, -0.001, -0.001, -0.001, 0.0]
effort: [0.032, 0.744, -25.4, -1.876, -13.82, -1.048, 0.772, -0.036, 0.0]
---
header: 
  seq: 1616716
  stamp: 
    secs: 1512620710
    nsecs: 776608892
  frame_id: ''
name: ['head_pan', 'right_j0', 'right_j1', 'right_j2', 'right_j3', 'right_j4', 'right_j5', 'right_j6', 'torso_t0']
position: [-0.0998505859375, -1.0460302734375, 1.2869541015625, -0.343587890625, -1.6291728515625, -2.08798828125, -0.701947265625, 3.9707255859375, 0.0]
velocity: [-0.001, -0.001, -0.001, -0.001, -0.001, -0.001, -0.001, -0.001, 0.0]
effort: [0.0, 0.796, -25.4, -1.832, -13.8, -1.052, 0.792, -0.016, 0.0]
---
header: 
  seq: 1616717
  stamp: 
    secs: 1512620710
    nsecs: 786623742
  frame_id: ''
name: ['head_pan', 'right_j0', 'right_j1', 'right_j2', 'right_j3', 'right_j4', 'right_j5', 'right_j6', 'torso_t0']
position: [-0.0998505859375, -1.0460302734375, 1.2869541015625, -0.343587890625, -1.6291728515625, -2.08798828125, -0.701947265625, 3.9707255859375, 0.0]
velocity: [-0.001, -0.001, -0.001, -0.001, -0.001, -0.001, -0.001, -0.001, 0.0]
effort: [0.0, 0.796, -25.4, -1.788, -13.864, -1.04, 0.78, -0.012, 0.0]
---
header: 
  seq: 1616718
  stamp: 
    secs: 1512620710
    nsecs: 796611014
  frame_id: ''
name: ['head_pan', 'right_j0', 'right_j1', 'right_j2', 'right_j3', 'right_j4', 'right_j5', 'right_j6', 'torso_t0']
position: [-0.0998505859375, -1.0460302734375, 1.2869541015625, -0.343587890625, -1.6291728515625, -2.08798828125, -0.701947265625, 3.9707255859375, 0.0]
velocity: [-0.001, -0.001, -0.001, -0.001, -0.001, -0.001, -0.001, -0.001, 0.0]
effort: [0.0, 0.796, -25.4, -1.832, -13.912, -1.04, 0.78, -0.016, 0.0]
---
header: 
  seq: 1616719
  stamp: 
    secs: 1512620710
    nsecs: 806629142
  frame_id: ''
name: ['head_pan', 'right_j0', 'right_j1', 'right_j2', 'right_j3', 'right_j4', 'right_j5', 'right_j6', 'torso_t0']
position: [-0.0998505859375, -1.0460302734375, 1.2869541015625, -0.343587890625, -1.6291728515625, -2.08798828125, -0.701947265625, 3.9707255859375, 0.0]
velocity: [-0.001, -0.001, -0.001, -0.001, -0.001, -0.001, -0.001, -0.001, 0.0]
effort: [-0.012, 0.796, -25.452, -1.988, -13.864, -1.04, 0.78, -0.012, 0.0]
---
header: 
  seq: 1616720
  stamp: 
    secs: 1512620710
    nsecs: 816613374
  frame_id: ''
name: ['head_pan', 'right_j0', 'right_j1', 'right_j2', 'right_j3', 'right_j4', 'right_j5', 'right_j6', 'torso_t0']
position: [-0.0998505859375, -1.0460302734375, 1.2869541015625, -0.343587890625, -1.6291728515625, -2.08798828125, -0.701947265625, 3.9707255859375, 0.0]
velocity: [-0.001, -0.001, -0.001, -0.001, -0.001, -0.001, -0.001, -0.001, 0.0]
effort: [0.0, 0.848, -25.4, -1.988, -13.82, -1.04, 0.8, -0.016, 0.0]
---
header: 
  seq: 1616721
  stamp: 
    secs: 1512620710
    nsecs: 826618568
  frame_id: ''
name: ['head_pan', 'right_j0', 'right_j1', 'right_j2', 'right_j3', 'right_j4', 'right_j5', 'right_j6', 'torso_t0']
position: [-0.0998505859375, -1.0460302734375, 1.2869541015625, -0.343587890625, -1.6291728515625, -2.08798828125, -0.701947265625, 3.9707255859375, 0.0]
velocity: [-0.001, -0.001, -0.001, -0.001, -0.001, -0.001, -0.001, -0.001, 0.0]
effort: [-0.012, 0.848, -25.452, -1.92, -13.844, -1.032, 0.768, -0.016, 0.0]
---
header: 
  seq: 1616722
  stamp: 
    secs: 1512620710
    nsecs: 836623886
  frame_id: ''
name: ['head_pan', 'right_j0', 'right_j1', 'right_j2', 'right_j3', 'right_j4', 'right_j5', 'right_j6', 'torso_t0']
position: [-0.0998505859375, -1.0460302734375, 1.2869541015625, -0.343587890625, -1.6291728515625, -2.08798828125, -0.701947265625, 3.9707255859375, 0.0]
velocity: [-0.001, -0.001, -0.001, -0.001, -0.001, -0.001, -0.001, -0.001, 0.0]
effort: [0.0, 0.688, -25.348, -1.876, -13.82, -1.02, 0.78, -0.032, 0.0]
---
header: 
  seq: 1616723
  stamp: 
    secs: 1512620710
    nsecs: 846614132
  frame_id: ''
name: ['head_pan', 'right_j0', 'right_j1', 'right_j2', 'right_j3', 'right_j4', 'right_j5', 'right_j6', 'torso_t0']
position: [-0.0998505859375, -1.0460302734375, 1.2869541015625, -0.343587890625, -1.6291728515625, -2.08798828125, -0.701947265625, 3.9707255859375, 0.0]
velocity: [-0.001, -0.001, -0.001, -0.001, -0.001, -0.001, -0.001, -0.001, 0.0]
effort: [0.008, 0.744, -25.452, -1.944, -13.932, -1.028, 0.792, -0.024, 0.0]
---
header: 
  seq: 1616724
  stamp: 
    secs: 1512620710
    nsecs: 856614746
  frame_id: ''
name: ['head_pan', 'right_j0', 'right_j1', 'right_j2', 'right_j3', 'right_j4', 'right_j5', 'right_j6', 'torso_t0']
position: [-0.0998505859375, -1.0460302734375, 1.2869541015625, -0.343587890625, -1.6291728515625, -2.08798828125, -0.701947265625, 3.9707255859375, 0.0]
velocity: [-0.001, -0.001, -0.001, -0.001, -0.001, -0.001, -0.001, -0.001, 0.0]
effort: [0.064, 0.744, -25.348, -1.9, -13.82, -1.048, 0.772, -0.032, 0.0]
---
header: 
  seq: 1616725
  stamp: 
    secs: 1512620710
    nsecs: 866613425
  frame_id: ''
name: ['head_pan', 'right_j0', 'right_j1', 'right_j2', 'right_j3', 'right_j4', 'right_j5', 'right_j6', 'torso_t0']
position: [-0.0998505859375, -1.0460302734375, 1.2869541015625, -0.343587890625, -1.6291728515625, -2.08798828125, -0.701947265625, 3.9707255859375, 0.0]
velocity: [-0.001, -0.001, -0.001, -0.001, -0.001, -0.001, -0.001, -0.001, 0.0]
effort: [0.032, 0.796, -25.348, -1.9, -13.888, -1.032, 0.772, -0.012, 0.0]
---
header: 
  seq: 1616726
  stamp: 
    secs: 1512620710
    nsecs: 876617850
  frame_id: ''
name: ['head_pan', 'right_j0', 'right_j1', 'right_j2', 'right_j3', 'right_j4', 'right_j5', 'right_j6', 'torso_t0']
position: [-0.0998505859375, -1.0460302734375, 1.2869541015625, -0.343587890625, -1.6291728515625, -2.08798828125, -0.701947265625, 3.9707255859375, 0.0]
velocity: [-0.001, -0.001, -0.001, -0.001, -0.001, -0.001, -0.001, -0.001, 0.0]
effort: [0.008, 0.796, -25.348, -1.9, -13.82, -1.048, 0.804, -0.012, 0.0]
---
header: 
  seq: 1616727
  stamp: 
    secs: 1512620710
    nsecs: 886600129
  frame_id: ''
name: ['head_pan', 'right_j0', 'right_j1', 'right_j2', 'right_j3', 'right_j4', 'right_j5', 'right_j6', 'torso_t0']
position: [-0.0998505859375, -1.0460302734375, 1.2869541015625, -0.343587890625, -1.6291728515625, -2.08798828125, -0.701947265625, 3.9707255859375, 0.0]
velocity: [-0.001, -0.001, -0.001, -0.001, -0.001, -0.001, -0.001, -0.001, 0.0]
effort: [0.0, 0.796, -25.452, -1.9, -13.864, -1.028, 0.792, -0.004, 0.0]
---
header: 
  seq: 1616728
  stamp: 
    secs: 1512620710
    nsecs: 896582785
  frame_id: ''
name: ['head_pan', 'right_j0', 'right_j1', 'right_j2', 'right_j3', 'right_j4', 'right_j5', 'right_j6', 'torso_t0']
position: [-0.0998505859375, -1.0460302734375, 1.2869541015625, -0.343587890625, -1.6291728515625, -2.08798828125, -0.701947265625, 3.9707255859375, 0.0]
velocity: [-0.001, -0.001, -0.001, -0.001, -0.001, -0.001, -0.001, -0.001, 0.0]
effort: [0.0, 0.848, -25.452, -1.9, -13.888, -1.032, 0.792, -0.004, 0.0]
---
header: 
  seq: 1616729
  stamp: 
    secs: 1512620710
    nsecs: 906574011
  frame_id: ''
name: ['head_pan', 'right_j0', 'right_j1', 'right_j2', 'right_j3', 'right_j4', 'right_j5', 'right_j6', 'torso_t0']
position: [-0.0998505859375, -1.0460302734375, 1.2869541015625, -0.343587890625, -1.6291728515625, -2.08798828125, -0.701947265625, 3.9707255859375, 0.0]
velocity: [-0.001, -0.001, -0.001, -0.001, -0.001, -0.001, -0.001, -0.001, 0.0]
effort: [-0.012, 0.796, -25.348, -1.944, -13.8, -1.072, 0.78, -0.004, 0.0]
---
header: 
  seq: 1616730
  stamp: 
    secs: 1512620710
    nsecs: 916590001
  frame_id: ''
name: ['head_pan', 'right_j0', 'right_j1', 'right_j2', 'right_j3', 'right_j4', 'right_j5', 'right_j6', 'torso_t0']
position: [-0.0998505859375, -1.0460302734375, 1.2869541015625, -0.343587890625, -1.6291728515625, -2.08798828125, -0.701947265625, 3.9707255859375, 0.0]
velocity: [-0.001, -0.001, -0.001, -0.001, -0.001, -0.001, -0.001, -0.001, 0.0]
effort: [0.008, 0.848, -25.348, -1.808, -13.888, -1.032, 0.78, -0.016, 0.0]
---
header: 
  seq: 1616731
  stamp: 
    secs: 1512620710
    nsecs: 926612819
  frame_id: ''
name: ['head_pan', 'right_j0', 'right_j1', 'right_j2', 'right_j3', 'right_j4', 'right_j5', 'right_j6', 'torso_t0']
position: [-0.0998505859375, -1.0460302734375, 1.2869541015625, -0.343587890625, -1.6291728515625, -2.08798828125, -0.701947265625, 3.9707255859375, 0.0]
velocity: [-0.001, -0.001, -0.001, -0.001, -0.001, -0.001, -0.001, -0.001, 0.0]
effort: [0.0, 0.744, -25.452, -1.944, -13.82, -1.06, 0.768, -0.032, 0.0]
---
header: 
  seq: 1616732
  stamp: 
    secs: 1512620710
    nsecs: 936576544
  frame_id: ''
name: ['head_pan', 'right_j0', 'right_j1', 'right_j2', 'right_j3', 'right_j4', 'right_j5', 'right_j6', 'torso_t0']
position: [-0.0998505859375, -1.0460302734375, 1.2869541015625, -0.343587890625, -1.6291728515625, -2.08798828125, -0.701947265625, 3.9707255859375, 0.0]
velocity: [-0.001, -0.001, -0.001, -0.001, -0.001, -0.001, -0.001, -0.001, 0.0]
effort: [-0.012, 0.744, -25.348, -1.832, -13.888, -1.04, 0.8, -0.052, 0.0]
---
header: 
  seq: 1616733
  stamp: 
    secs: 1512620710
    nsecs: 946576046
  frame_id: ''
name: ['head_pan', 'right_j0', 'right_j1', 'right_j2', 'right_j3', 'right_j4', 'right_j5', 'right_j6', 'torso_t0']
position: [-0.0998505859375, -1.0460302734375, 1.2869541015625, -0.343587890625, -1.6291728515625, -2.08798828125, -0.701947265625, 3.9707255859375, 0.0]
velocity: [-0.001, -0.001, -0.001, -0.001, -0.001, -0.001, -0.001, -0.001, 0.0]
effort: [0.0, 0.744, -25.292, -1.9, -13.844, -1.064, 0.792, -0.024, 0.0]
---
header: 
  seq: 1616734
  stamp: 
    secs: 1512620710
    nsecs: 956578546
  frame_id: ''
name: ['head_pan', 'right_j0', 'right_j1', 'right_j2', 'right_j3', 'right_j4', 'right_j5', 'right_j6', 'torso_t0']
position: [-0.0998505859375, -1.0460302734375, 1.2869541015625, -0.343587890625, -1.6291728515625, -2.08798828125, -0.701947265625, 3.9707255859375, 0.0]
velocity: [-0.001, -0.001, -0.001, -0.001, -0.001, -0.001, -0.001, -0.001, 0.0]
effort: [-0.012, 0.848, -25.452, -1.9, -13.8, -1.06, 0.784, -0.024, 0.0]
---
header: 
  seq: 1616735
  stamp: 
    secs: 1512620710
    nsecs: 966583004
  frame_id: ''
name: ['head_pan', 'right_j0', 'right_j1', 'right_j2', 'right_j3', 'right_j4', 'right_j5', 'right_j6', 'torso_t0']
position: [-0.0998505859375, -1.0460302734375, 1.2869541015625, -0.343587890625, -1.6291728515625, -2.08798828125, -0.701947265625, 3.9707255859375, 0.0]
velocity: [-0.001, -0.001, -0.001, -0.001, -0.001, -0.001, -0.001, -0.001, 0.0]
effort: [0.0, 0.848, -25.4, -1.9, -13.864, -1.012, 0.78, -0.012, 0.0]
---
header: 
  seq: 1616736
  stamp: 
    secs: 1512620710
    nsecs: 976570751
  frame_id: ''
name: ['head_pan', 'right_j0', 'right_j1', 'right_j2', 'right_j3', 'right_j4', 'right_j5', 'right_j6', 'torso_t0']
position: [-0.0998505859375, -1.0460302734375, 1.2869541015625, -0.343587890625, -1.6291728515625, -2.08798828125, -0.701947265625, 3.9707255859375, 0.0]
velocity: [-0.001, -0.001, -0.001, -0.001, -0.001, -0.001, -0.001, -0.001, 0.0]
effort: [0.076, 0.848, -25.452, -1.944, -13.98, -1.04, 0.784, -0.032, 0.0]
---
header: 
  seq: 1616737
  stamp: 
    secs: 1512620710
    nsecs: 986575998
  frame_id: ''
name: ['head_pan', 'right_j0', 'right_j1', 'right_j2', 'right_j3', 'right_j4', 'right_j5', 'right_j6', 'torso_t0']
position: [-0.0998505859375, -1.0460302734375, 1.2869541015625, -0.343587890625, -1.6291728515625, -2.08798828125, -0.701947265625, 3.9707255859375, 0.0]
velocity: [-0.001, -0.001, -0.001, -0.001, -0.001, -0.001, -0.001, -0.001, 0.0]
effort: [0.008, 0.796, -25.292, -1.876, -13.844, -1.008, 0.772, -0.032, 0.0]
---
header: 
  seq: 1616738
  stamp: 
    secs: 1512620710
    nsecs: 996580692
  frame_id: ''
name: ['head_pan', 'right_j0', 'right_j1', 'right_j2', 'right_j3', 'right_j4', 'right_j5', 'right_j6', 'torso_t0']
position: [-0.0998505859375, -1.0460302734375, 1.2869541015625, -0.343587890625, -1.6291728515625, -2.08798828125, -0.701947265625, 3.9707255859375, 0.0]
velocity: [-0.001, -0.001, -0.001, -0.001, -0.001, -0.001, -0.001, -0.001, 0.0]
effort: [0.0, 0.848, -25.4, -1.832, -13.776, -1.04, 0.772, -0.024, 0.0]
---
header: 
  seq: 1616739
  stamp: 
    secs: 1512620711
    nsecs:   6576874
  frame_id: ''
name: ['head_pan', 'right_j0', 'right_j1', 'right_j2', 'right_j3', 'right_j4', 'right_j5', 'right_j6', 'torso_t0']
position: [-0.0998505859375, -1.0460302734375, 1.2869541015625, -0.343587890625, -1.6291728515625, -2.08798828125, -0.701947265625, 3.9707255859375, 0.0]
velocity: [-0.001, -0.001, -0.001, -0.001, -0.001, -0.001, -0.001, -0.001, 0.0]
effort: [0.008, 0.796, -25.4, -1.92, -13.82, -1.04, 0.792, -0.016, 0.0]
---
header: 
  seq: 1616740
  stamp: 
    secs: 1512620711
    nsecs:  16565628
  frame_id: ''
name: ['head_pan', 'right_j0', 'right_j1', 'right_j2', 'right_j3', 'right_j4', 'right_j5', 'right_j6', 'torso_t0']
position: [-0.0998505859375, -1.0460302734375, 1.2869541015625, -0.343587890625, -1.6291728515625, -2.08798828125, -0.701947265625, 3.9707255859375, 0.0]
velocity: [-0.001, -0.001, -0.001, -0.001, -0.001, -0.001, -0.001, -0.001, 0.0]
effort: [0.0, 0.688, -25.4, -1.9, -13.844, -1.032, 0.8, -0.004, 0.0]
---
header: 
  seq: 1616741
  stamp: 
    secs: 1512620711
    nsecs:  26615650
  frame_id: ''
name: ['head_pan', 'right_j0', 'right_j1', 'right_j2', 'right_j3', 'right_j4', 'right_j5', 'right_j6', 'torso_t0']
position: [-0.0998505859375, -1.0460302734375, 1.2869541015625, -0.343587890625, -1.6291728515625, -2.08798828125, -0.701947265625, 3.9707255859375, 0.0]
velocity: [-0.001, -0.001, -0.001, -0.001, -0.001, -0.001, -0.001, -0.001, 0.0]
effort: [-0.032, 0.796, -25.348, -1.808, -13.844, -1.02, 0.768, -0.024, 0.0]
---
header: 
  seq: 1616742
  stamp: 
    secs: 1512620711
    nsecs:  36592547
  frame_id: ''
name: ['head_pan', 'right_j0', 'right_j1', 'right_j2', 'right_j3', 'right_j4', 'right_j5', 'right_j6', 'torso_t0']
position: [-0.0998505859375, -1.0460302734375, 1.2869541015625, -0.343587890625, -1.6291728515625, -2.08798828125, -0.701947265625, 3.9707255859375, 0.0]
velocity: [-0.001, -0.001, -0.001, -0.001, -0.001, -0.001, -0.001, -0.001, 0.0]
effort: [0.008, 0.744, -25.292, -1.788, -13.912, -1.048, 0.792, -0.032, 0.0]
---
header: 
  seq: 1616743
  stamp: 
    secs: 1512620711
    nsecs:  46579214
  frame_id: ''
name: ['head_pan', 'right_j0', 'right_j1', 'right_j2', 'right_j3', 'right_j4', 'right_j5', 'right_j6', 'torso_t0']
position: [-0.0998505859375, -1.0460302734375, 1.2869541015625, -0.343587890625, -1.6291728515625, -2.08798828125, -0.701947265625, 3.9707255859375, 0.0]
velocity: [-0.001, -0.001, -0.001, -0.001, -0.001, -0.001, -0.001, -0.001, 0.0]
effort: [-0.02, 0.796, -25.4, -1.988, -13.844, -1.064, 0.768, -0.024, 0.0]
---
header: 
  seq: 1616744
  stamp: 
    secs: 1512620711
    nsecs:  56582953
  frame_id: ''
name: ['head_pan', 'right_j0', 'right_j1', 'right_j2', 'right_j3', 'right_j4', 'right_j5', 'right_j6', 'torso_t0']
position: [-0.0998505859375, -1.0460302734375, 1.2869541015625, -0.343587890625, -1.6291728515625, -2.08798828125, -0.701947265625, 3.9707255859375, 0.0]
velocity: [-0.001, -0.001, -0.001, -0.001, -0.001, -0.001, -0.001, -0.001, 0.0]
effort: [0.0, 0.744, -25.452, -1.9, -13.912, -1.048, 0.792, -0.032, 0.0]
---
header: 
  seq: 1616745
  stamp: 
    secs: 1512620711
    nsecs:  66585948
  frame_id: ''
name: ['head_pan', 'right_j0', 'right_j1', 'right_j2', 'right_j3', 'right_j4', 'right_j5', 'right_j6', 'torso_t0']
position: [-0.0998505859375, -1.0460302734375, 1.2869541015625, -0.343587890625, -1.6291728515625, -2.08798828125, -0.701947265625, 3.9707255859375, 0.0]
velocity: [-0.001, -0.001, -0.001, -0.001, -0.001, -0.001, -0.001, -0.001, 0.0]
effort: [0.008, 0.688, -25.292, -1.808, -13.844, -1.028, 0.772, -0.012, 0.0]
---
header: 
  seq: 1616746
  stamp: 
    secs: 1512620711
    nsecs:  76615651
  frame_id: ''
name: ['head_pan', 'right_j0', 'right_j1', 'right_j2', 'right_j3', 'right_j4', 'right_j5', 'right_j6', 'torso_t0']
position: [-0.0998505859375, -1.0460302734375, 1.2869541015625, -0.343587890625, -1.6291728515625, -2.08798828125, -0.701947265625, 3.9707255859375, 0.0]
velocity: [-0.001, -0.001, -0.001, -0.001, -0.001, -0.001, -0.001, -0.001, 0.0]
effort: [0.0, 0.848, -25.4, -1.856, -13.82, -1.052, 0.784, -0.012, 0.0]
---
header: 
  seq: 1616747
  stamp: 
    secs: 1512620711
    nsecs:  86627092
  frame_id: ''
name: ['head_pan', 'right_j0', 'right_j1', 'right_j2', 'right_j3', 'right_j4', 'right_j5', 'right_j6', 'torso_t0']
position: [-0.0998505859375, -1.0460302734375, 1.2869541015625, -0.343587890625, -1.6291728515625, -2.08798828125, -0.701947265625, 3.9707255859375, 0.0]
velocity: [-0.001, -0.001, -0.001, -0.001, -0.001, -0.001, -0.001, -0.001, 0.0]
effort: [0.032, 0.744, -25.4, -1.92, -13.912, -1.032, 0.772, 0.012, 0.0]
---
header: 
  seq: 1616748
  stamp: 
    secs: 1512620711
    nsecs:  96601292
  frame_id: ''
name: ['head_pan', 'right_j0', 'right_j1', 'right_j2', 'right_j3', 'right_j4', 'right_j5', 'right_j6', 'torso_t0']
position: [-0.0998505859375, -1.0460302734375, 1.2869541015625, -0.343587890625, -1.6291728515625, -2.08798828125, -0.701947265625, 3.9707255859375, 0.0]
velocity: [-0.001, -0.001, -0.001, -0.001, -0.001, -0.001, -0.001, -0.001, 0.0]
effort: [0.032, 0.796, -25.504, -1.832, -13.888, -1.052, 0.752, 0.004, 0.0]
---
header: 
  seq: 1616749
  stamp: 
    secs: 1512620711
    nsecs: 106612922
  frame_id: ''
name: ['head_pan', 'right_j0', 'right_j1', 'right_j2', 'right_j3', 'right_j4', 'right_j5', 'right_j6', 'torso_t0']
position: [-0.0998505859375, -1.0460302734375, 1.2869541015625, -0.343587890625, -1.6291728515625, -2.08798828125, -0.701947265625, 3.9707255859375, 0.0]
velocity: [-0.001, -0.001, -0.001, -0.001, -0.001, -0.001, -0.001, -0.001, 0.0]
effort: [0.02, 0.796, -25.348, -1.944, -13.8, -1.04, 0.76, -0.004, 0.0]
---
header: 
  seq: 1616750
  stamp: 
    secs: 1512620711
    nsecs: 116606315
  frame_id: ''
name: ['head_pan', 'right_j0', 'right_j1', 'right_j2', 'right_j3', 'right_j4', 'right_j5', 'right_j6', 'torso_t0']
position: [-0.0998505859375, -1.0460302734375, 1.2869541015625, -0.343587890625, -1.6291728515625, -2.08798828125, -0.701947265625, 3.9707255859375, 0.0]
velocity: [-0.001, -0.001, -0.001, -0.001, -0.001, -0.001, -0.001, -0.001, 0.0]
effort: [0.032, 0.796, -25.348, -1.876, -13.932, -1.012, 0.772, -0.024, 0.0]
---
header: 
  seq: 1616751
  stamp: 
    secs: 1512620711
    nsecs: 126631314
  frame_id: ''
name: ['head_pan', 'right_j0', 'right_j1', 'right_j2', 'right_j3', 'right_j4', 'right_j5', 'right_j6', 'torso_t0']
position: [-0.0998505859375, -1.0460302734375, 1.2869541015625, -0.343587890625, -1.6291728515625, -2.08798828125, -0.701947265625, 3.9707255859375, 0.0]
velocity: [-0.001, -0.001, -0.001, -0.001, -0.001, -0.001, -0.001, -0.001, 0.0]
effort: [0.008, 0.744, -25.452, -1.856, -13.888, -1.012, 0.784, -0.012, 0.0]
---
header: 
  seq: 1616752
  stamp: 
    secs: 1512620711
    nsecs: 136632112
  frame_id: ''
name: ['head_pan', 'right_j0', 'right_j1', 'right_j2', 'right_j3', 'right_j4', 'right_j5', 'right_j6', 'torso_t0']
position: [-0.0998505859375, -1.0460302734375, 1.2869541015625, -0.343587890625, -1.6291728515625, -2.08798828125, -0.701947265625, 3.9707255859375, 0.0]
velocity: [-0.001, -0.001, -0.001, -0.001, -0.001, -0.001, -0.001, -0.001, 0.0]
effort: [-0.012, 0.796, -25.452, -1.832, -13.844, -1.04, 0.78, -0.032, 0.0]
---
header: 
  seq: 1616753
  stamp: 
    secs: 1512620711
    nsecs: 146624522
  frame_id: ''
name: ['head_pan', 'right_j0', 'right_j1', 'right_j2', 'right_j3', 'right_j4', 'right_j5', 'right_j6', 'torso_t0']
position: [-0.0998505859375, -1.0460302734375, 1.2869541015625, -0.343587890625, -1.6291728515625, -2.08798828125, -0.701947265625, 3.9707255859375, 0.0]
velocity: [-0.001, -0.001, -0.001, -0.001, -0.001, -0.001, -0.001, -0.001, 0.0]
effort: [-0.032, 0.796, -25.4, -1.988, -13.8, -1.012, 0.784, -0.004, 0.0]
---
header: 
  seq: 1616754
  stamp: 
    secs: 1512620711
    nsecs: 156639376
  frame_id: ''
name: ['head_pan', 'right_j0', 'right_j1', 'right_j2', 'right_j3', 'right_j4', 'right_j5', 'right_j6', 'torso_t0']
position: [-0.0998505859375, -1.0460302734375, 1.2869541015625, -0.343587890625, -1.6291728515625, -2.08798828125, -0.701947265625, 3.9707255859375, 0.0]
velocity: [-0.001, -0.001, -0.001, -0.001, -0.001, -0.001, -0.001, -0.001, 0.0]
effort: [0.008, 0.744, -25.348, -1.876, -13.8, -1.028, 0.78, -0.032, 0.0]
---
header: 
  seq: 1616755
  stamp: 
    secs: 1512620711
    nsecs: 166643292
  frame_id: ''
name: ['head_pan', 'right_j0', 'right_j1', 'right_j2', 'right_j3', 'right_j4', 'right_j5', 'right_j6', 'torso_t0']
position: [-0.0998505859375, -1.0460302734375, 1.2869541015625, -0.343587890625, -1.6291728515625, -2.08798828125, -0.701947265625, 3.9707255859375, 0.0]
velocity: [-0.001, -0.001, -0.001, -0.001, -0.001, -0.001, -0.001, -0.001, 0.0]
effort: [-0.02, 0.744, -25.292, -1.968, -13.864, -1.048, 0.792, -0.024, 0.0]
---
header: 
  seq: 1616756
  stamp: 
    secs: 1512620711
    nsecs: 176617829
  frame_id: ''
name: ['head_pan', 'right_j0', 'right_j1', 'right_j2', 'right_j3', 'right_j4', 'right_j5', 'right_j6', 'torso_t0']
position: [-0.0998505859375, -1.0460302734375, 1.2869541015625, -0.343587890625, -1.6291728515625, -2.08798828125, -0.701947265625, 3.9707255859375, 0.0]
velocity: [-0.001, -0.001, -0.001, -0.001, -0.001, -0.001, -0.001, -0.001, 0.0]
effort: [0.02, 0.796, -25.348, -1.92, -13.752, -1.02, 0.784, -0.016, 0.0]
---
header: 
  seq: 1616757
  stamp: 
    secs: 1512620711
    nsecs: 186639295
  frame_id: ''
name: ['head_pan', 'right_j0', 'right_j1', 'right_j2', 'right_j3', 'right_j4', 'right_j5', 'right_j6', 'torso_t0']
position: [-0.0998505859375, -1.0460302734375, 1.2869541015625, -0.343587890625, -1.6291728515625, -2.08798828125, -0.701947265625, 3.9707255859375, 0.0]
velocity: [-0.001, -0.001, -0.001, -0.001, -0.001, -0.001, -0.001, -0.001, 0.0]
effort: [0.008, 0.796, -25.452, -1.876, -13.82, -1.06, 0.772, -0.052, 0.0]
---
header: 
  seq: 1616758
  stamp: 
    secs: 1512620711
    nsecs: 196638473
  frame_id: ''
name: ['head_pan', 'right_j0', 'right_j1', 'right_j2', 'right_j3', 'right_j4', 'right_j5', 'right_j6', 'torso_t0']
position: [-0.0998505859375, -1.0460302734375, 1.2869541015625, -0.343587890625, -1.6291728515625, -2.08798828125, -0.701947265625, 3.9707255859375, 0.0]
velocity: [-0.001, -0.001, -0.001, -0.001, -0.001, -0.001, -0.001, -0.001, 0.0]
effort: [0.02, 0.796, -25.452, -2.012, -13.776, -1.052, 0.76, -0.036, 0.0]
---
header: 
  seq: 1616759
  stamp: 
    secs: 1512620711
    nsecs: 206619760
  frame_id: ''
name: ['head_pan', 'right_j0', 'right_j1', 'right_j2', 'right_j3', 'right_j4', 'right_j5', 'right_j6', 'torso_t0']
position: [-0.0998505859375, -1.0460302734375, 1.2869541015625, -0.343587890625, -1.6291728515625, -2.08798828125, -0.701947265625, 3.9707255859375, 0.0]
velocity: [-0.001, -0.001, -0.001, -0.001, -0.001, -0.001, -0.001, -0.001, 0.0]
effort: [0.04, 0.796, -25.292, -1.944, -13.82, -1.028, 0.768, -0.032, 0.0]
---
header: 
  seq: 1616760
  stamp: 
    secs: 1512620711
    nsecs: 216636088
  frame_id: ''
name: ['head_pan', 'right_j0', 'right_j1', 'right_j2', 'right_j3', 'right_j4', 'right_j5', 'right_j6', 'torso_t0']
position: [-0.0998505859375, -1.0460302734375, 1.2869541015625, -0.343587890625, -1.6291728515625, -2.08798828125, -0.701947265625, 3.9707255859375, 0.0]
velocity: [-0.001, -0.001, -0.001, -0.001, -0.001, -0.001, -0.001, -0.001, 0.0]
effort: [0.052, 0.848, -25.292, -1.832, -13.844, -1.04, 0.772, -0.024, 0.0]
---
header: 
  seq: 1616761
  stamp: 
    secs: 1512620711
    nsecs: 226636454
  frame_id: ''
name: ['head_pan', 'right_j0', 'right_j1', 'right_j2', 'right_j3', 'right_j4', 'right_j5', 'right_j6', 'torso_t0']
position: [-0.0998505859375, -1.0460302734375, 1.2869541015625, -0.343587890625, -1.6291728515625, -2.08798828125, -0.701947265625, 3.9707255859375, 0.0]
velocity: [-0.001, -0.001, -0.001, -0.001, -0.001, -0.001, -0.001, -0.001, 0.0]
effort: [0.008, 0.848, -25.452, -1.9, -13.888, -1.028, 0.78, -0.032, 0.0]
---
header: 
  seq: 1616762
  stamp: 
    secs: 1512620711
    nsecs: 236615998
  frame_id: ''
name: ['head_pan', 'right_j0', 'right_j1', 'right_j2', 'right_j3', 'right_j4', 'right_j5', 'right_j6', 'torso_t0']
position: [-0.0998505859375, -1.0460302734375, 1.2869541015625, -0.343587890625, -1.6291728515625, -2.08798828125, -0.701947265625, 3.9707255859375, 0.0]
velocity: [-0.001, -0.001, -0.001, -0.001, -0.001, -0.001, -0.001, -0.001, 0.0]
effort: [0.0, 0.796, -25.452, -1.9, -13.912, -1.028, 0.772, -0.016, 0.0]
---
header: 
  seq: 1616763
  stamp: 
    secs: 1512620711
    nsecs: 246654966
  frame_id: ''
name: ['head_pan', 'right_j0', 'right_j1', 'right_j2', 'right_j3', 'right_j4', 'right_j5', 'right_j6', 'torso_t0']
position: [-0.0998505859375, -1.0460302734375, 1.2869541015625, -0.343587890625, -1.6291728515625, -2.08798828125, -0.701947265625, 3.9707255859375, 0.0]
velocity: [-0.001, -0.001, -0.001, -0.001, -0.001, -0.001, -0.001, -0.001, 0.0]
effort: [0.032, 0.744, -25.348, -1.944, -13.864, -1.048, 0.792, 0.0, 0.0]
---
header: 
  seq: 1616764
  stamp: 
    secs: 1512620711
    nsecs: 256616737
  frame_id: ''
name: ['head_pan', 'right_j0', 'right_j1', 'right_j2', 'right_j3', 'right_j4', 'right_j5', 'right_j6', 'torso_t0']
position: [-0.0998505859375, -1.0460302734375, 1.2869541015625, -0.343587890625, -1.6291728515625, -2.08798828125, -0.701947265625, 3.9707255859375, 0.0]
velocity: [-0.001, -0.001, -0.001, -0.001, -0.001, -0.001, -0.001, -0.001, 0.0]
effort: [-0.012, 0.796, -25.348, -1.9, -13.8, -1.02, 0.804, -0.004, 0.0]
---
header: 
  seq: 1616765
  stamp: 
    secs: 1512620711
    nsecs: 266649083
  frame_id: ''
name: ['head_pan', 'right_j0', 'right_j1', 'right_j2', 'right_j3', 'right_j4', 'right_j5', 'right_j6', 'torso_t0']
position: [-0.0998505859375, -1.0460302734375, 1.2869541015625, -0.343587890625, -1.6291728515625, -2.08798828125, -0.701947265625, 3.9707255859375, 0.0]
velocity: [-0.001, -0.001, -0.001, -0.001, -0.001, -0.001, -0.001, -0.001, 0.0]
effort: [-0.012, 0.744, -25.4, -1.856, -13.888, -1.032, 0.772, -0.012, 0.0]
---
header: 
  seq: 1616766
  stamp: 
    secs: 1512620711
    nsecs: 276597129
  frame_id: ''
name: ['head_pan', 'right_j0', 'right_j1', 'right_j2', 'right_j3', 'right_j4', 'right_j5', 'right_j6', 'torso_t0']
position: [-0.0998505859375, -1.0460302734375, 1.2869541015625, -0.343587890625, -1.6291728515625, -2.08798828125, -0.701947265625, 3.9707255859375, 0.0]
