header: 
  seq: 1633813
  stamp: 
    secs: 1512620881
    nsecs: 745903415
  frame_id: ''
name: ['head_pan', 'right_j0', 'right_j1', 'right_j2', 'right_j3', 'right_j4', 'right_j5', 'right_j6', 'torso_t0']
position: [-0.0998505859375, -1.0917216796875, 1.176912109375, -2.629283203125, 1.277107421875, -2.7936357421875, -0.01792578125, -0.355458984375, 0.0]
velocity: [-0.001, -0.002, -0.001, -0.001, 0.009, -0.001, -0.001, -0.001, 0.0]
effort: [-0.012, 0.636, -29.58, 0.916, 15.032, 2.34, -1.28, 0.192, 0.0]
---
header: 
  seq: 1633814
  stamp: 
    secs: 1512620881
    nsecs: 755920533
  frame_id: ''
name: ['head_pan', 'right_j0', 'right_j1', 'right_j2', 'right_j3', 'right_j4', 'right_j5', 'right_j6', 'torso_t0']
position: [-0.0998505859375, -1.0917216796875, 1.1768095703125, -2.6291396484375, 1.277107421875, -2.7936357421875, -0.01792578125, -0.355458984375, 0.0]
velocity: [-0.001, -0.001, -0.003, 0.006, -0.001, -0.001, -0.001, -0.001, 0.0]
effort: [0.0, 0.688, -29.688, 0.78, 15.076, 2.336, -1.22, 0.192, 0.0]
---
header: 
  seq: 1633815
  stamp: 
    secs: 1512620881
    nsecs: 765911822
  frame_id: ''
name: ['head_pan', 'right_j0', 'right_j1', 'right_j2', 'right_j3', 'right_j4', 'right_j5', 'right_j6', 'torso_t0']
position: [-0.0998505859375, -1.0917216796875, 1.1768095703125, -2.6291396484375, 1.277107421875, -2.7936357421875, -0.01792578125, -0.355458984375, 0.0]
velocity: [-0.001, -0.001, -0.008, 0.009, -0.001, -0.001, -0.001, -0.001, 0.0]
effort: [0.008, 0.688, -29.74, 0.736, 15.012, 2.336, -1.228, 0.208, 0.0]
---
header: 
  seq: 1633816
  stamp: 
    secs: 1512620881
    nsecs: 775897335
  frame_id: ''
name: ['head_pan', 'right_j0', 'right_j1', 'right_j2', 'right_j3', 'right_j4', 'right_j5', 'right_j6', 'torso_t0']
position: [-0.0998505859375, -1.09182421875, 1.17670703125, -2.6291396484375, 1.277107421875, -2.7936357421875, -0.01792578125, -0.355458984375, 0.0]
velocity: [-0.001, -0.005, -0.001, -0.001, -0.001, -0.001, -0.001, -0.001, 0.0]
effort: [0.0, 0.744, -29.792, 0.736, 14.988, 2.316, -1.228, 0.188, 0.0]
---
header: 
  seq: 1633817
  stamp: 
    secs: 1512620881
    nsecs: 785894577
  frame_id: ''
name: ['head_pan', 'right_j0', 'right_j1', 'right_j2', 'right_j3', 'right_j4', 'right_j5', 'right_j6', 'torso_t0']
position: [-0.0998505859375, -1.09182421875, 1.17670703125, -2.6291396484375, 1.277107421875, -2.7936357421875, -0.01792578125, -0.355458984375, 0.0]
velocity: [-0.001, -0.007, -0.008, -0.001, -0.001, -0.001, -0.001, -0.001, 0.0]
effort: [0.032, 0.744, -29.896, 0.76, 15.032, 2.324, -1.26, 0.22, 0.0]
---
header: 
  seq: 1633818
  stamp: 
    secs: 1512620881
    nsecs: 795886989
  frame_id: ''
name: ['head_pan', 'right_j0', 'right_j1', 'right_j2', 'right_j3', 'right_j4', 'right_j5', 'right_j6', 'torso_t0']
position: [-0.0998505859375, -1.09182421875, 1.176603515625, -2.6291396484375, 1.277107421875, -2.7936357421875, -0.01792578125, -0.355458984375, 0.0]
velocity: [-0.001, -0.001, -0.005, -0.001, -0.001, -0.001, -0.001, -0.001, 0.0]
effort: [0.008, 0.744, -29.74, 0.76, 14.944, 2.356, -1.236, 0.188, 0.0]
---
header: 
  seq: 1633819
  stamp: 
    secs: 1512620881
    nsecs: 805919425
  frame_id: ''
name: ['head_pan', 'right_j0', 'right_j1', 'right_j2', 'right_j3', 'right_j4', 'right_j5', 'right_j6', 'torso_t0']
position: [-0.0998505859375, -1.09182421875, 1.176603515625, -2.6291396484375, 1.277251953125, -2.7936357421875, -0.01792578125, -0.355458984375, 0.0]
velocity: [-0.001, -0.001, -0.008, -0.001, 0.003, -0.001, -0.001, -0.001, 0.0]
effort: [0.04, 0.796, -29.632, 0.668, 14.964, 2.324, -1.208, 0.168, 0.0]
---
header: 
  seq: 1633820
  stamp: 
    secs: 1512620881
    nsecs: 815920978
  frame_id: ''
name: ['head_pan', 'right_j0', 'right_j1', 'right_j2', 'right_j3', 'right_j4', 'right_j5', 'right_j6', 'torso_t0']
position: [-0.0998505859375, -1.0917216796875, 1.1765009765625, -2.6291396484375, 1.277251953125, -2.7934296875, -0.01792578125, -0.355458984375, 0.0]
velocity: [-0.001, -0.001, -0.003, -0.001, 0.01, -0.001, -0.001, -0.001, 0.0]
effort: [0.04, 0.744, -29.476, 0.76, 14.92, 2.308, -1.228, 0.18, 0.0]
---
header: 
  seq: 1633821
  stamp: 
    secs: 1512620881
    nsecs: 825929224
  frame_id: ''
name: ['head_pan', 'right_j0', 'right_j1', 'right_j2', 'right_j3', 'right_j4', 'right_j5', 'right_j6', 'torso_t0']
position: [-0.0998505859375, -1.0917216796875, 1.1765009765625, -2.6291396484375, 1.277251953125, -2.7934296875, -0.01792578125, -0.355458984375, 0.0]
velocity: [-0.001, 0.007, -0.008, -0.001, -0.001, 0.015, -0.001, -0.001, 0.0]
effort: [0.032, 0.688, -29.528, 0.624, 14.876, 2.288, -1.22, 0.188, 0.0]
---
header: 
  seq: 1633822
  stamp: 
    secs: 1512620881
    nsecs: 835920287
  frame_id: ''
name: ['head_pan', 'right_j0', 'right_j1', 'right_j2', 'right_j3', 'right_j4', 'right_j5', 'right_j6', 'torso_t0']
position: [-0.0998505859375, -1.0917216796875, 1.1765009765625, -2.6291396484375, 1.277396484375, -2.7934296875, -0.018119140625, -0.355458984375, 0.0]
velocity: [-0.001, 0.001, -0.001, -0.001, 0.01, 0.002, -0.011, -0.001, 0.0]
effort: [0.02, 0.636, -29.476, 0.76, 14.54, 2.288, -1.204, 0.18, 0.0]
---
header: 
  seq: 1633823
  stamp: 
    secs: 1512620881
    nsecs: 845989414
  frame_id: ''
name: ['head_pan', 'right_j0', 'right_j1', 'right_j2', 'right_j3', 'right_j4', 'right_j5', 'right_j6', 'torso_t0']
position: [-0.0998505859375, -1.0917216796875, 1.1765009765625, -2.6291396484375, 1.277396484375, -2.7934296875, -0.018119140625, -0.355458984375, 0.0]
velocity: [-0.001, -0.001, -0.001, -0.001, 0.004, -0.001, -0.012, -0.001, 0.0]
effort: [0.02, 0.584, -29.42, 0.824, 14.448, 2.256, -1.188, 0.224, 0.0]
---
header: 
  seq: 1633824
  stamp: 
    secs: 1512620881
    nsecs: 855923592
  frame_id: ''
name: ['head_pan', 'right_j0', 'right_j1', 'right_j2', 'right_j3', 'right_j4', 'right_j5', 'right_j6', 'torso_t0']
position: [-0.0998505859375, -1.0917216796875, 1.1763984375, -2.6291396484375, 1.277396484375, -2.7934296875, -0.018119140625, -0.355458984375, 0.0]
velocity: [-0.001, -0.001, -0.007, -0.001, -0.001, -0.001, -0.001, -0.001, 0.0]
effort: [0.0, 0.528, -29.42, 0.78, 14.54, 2.252, -1.188, 0.2, 0.0]
---
header: 
  seq: 1633825
  stamp: 
    secs: 1512620881
    nsecs: 865903450
  frame_id: ''
name: ['head_pan', 'right_j0', 'right_j1', 'right_j2', 'right_j3', 'right_j4', 'right_j5', 'right_j6', 'torso_t0']
position: [-0.0998505859375, -1.0917216796875, 1.1763984375, -2.6291396484375, 1.277396484375, -2.7936357421875, -0.01792578125, -0.355458984375, 0.0]
velocity: [-0.001, -0.001, -0.006, -0.001, -0.001, -0.003, 0.012, -0.001, 0.0]
effort: [0.008, 0.476, -29.42, 0.892, 14.832, 2.324, -1.236, 0.18, 0.0]
---
header: 
  seq: 1633826
  stamp: 
    secs: 1512620881
    nsecs: 875923890
  frame_id: ''
name: ['head_pan', 'right_j0', 'right_j1', 'right_j2', 'right_j3', 'right_j4', 'right_j5', 'right_j6', 'torso_t0']
position: [-0.0998505859375, -1.0917216796875, 1.1763984375, -2.6291396484375, 1.2775400390625, -2.7936357421875, -0.01792578125, -0.355458984375, 0.0]
velocity: [-0.001, -0.001, -0.001, -0.001, 0.004, -0.016, 0.008, -0.001, 0.0]
effort: [0.008, 0.528, -29.368, 0.916, 15.236, 2.376, -1.292, 0.2, 0.0]
---
header: 
  seq: 1633827
  stamp: 
    secs: 1512620881
    nsecs: 885934446
  frame_id: ''
name: ['head_pan', 'right_j0', 'right_j1', 'right_j2', 'right_j3', 'right_j4', 'right_j5', 'right_j6', 'torso_t0']
position: [-0.0998505859375, -1.0917216796875, 1.1765009765625, -2.6291396484375, 1.2776845703125, -2.7936357421875, -0.01792578125, -0.355458984375, 0.0]
velocity: [-0.001, -0.001, 0.002, -0.001, 0.017, -0.013, -0.001, -0.001, 0.0]
effort: [0.032, 0.476, -29.688, 1.028, 15.168, 2.428, -1.272, 0.188, 0.0]
---
header: 
  seq: 1633828
  stamp: 
    secs: 1512620881
    nsecs: 895933288
  frame_id: ''
name: ['head_pan', 'right_j0', 'right_j1', 'right_j2', 'right_j3', 'right_j4', 'right_j5', 'right_j6', 'torso_t0']
position: [-0.0998505859375, -1.0917216796875, 1.1765009765625, -2.6291396484375, 1.2778291015625, -2.7934296875, -0.01792578125, -0.355458984375, 0.0]
velocity: [-0.001, -0.001, 0.007, -0.001, 0.01, 0.012, -0.001, -0.001, 0.0]
effort: [0.008, 0.528, -29.844, 0.892, 14.944, 2.324, -1.248, 0.2, 0.0]
---
header: 
  seq: 1633829
  stamp: 
    secs: 1512620881
    nsecs: 905905966
  frame_id: ''
name: ['head_pan', 'right_j0', 'right_j1', 'right_j2', 'right_j3', 'right_j4', 'right_j5', 'right_j6', 'torso_t0']
position: [-0.0998505859375, -1.091619140625, 1.1765009765625, -2.6291396484375, 1.2778291015625, -2.7934296875, -0.018119140625, -0.355458984375, 0.0]
velocity: [-0.001, 0.002, -0.001, -0.001, 0.01, 0.015, -0.009, -0.001, 0.0]
effort: [0.0, 0.476, -30.164, 0.76, 14.74, 2.284, -1.196, 0.18, 0.0]
---
header: 
  seq: 1633830
  stamp: 
    secs: 1512620881
    nsecs: 915931322
  frame_id: ''
name: ['head_pan', 'right_j0', 'right_j1', 'right_j2', 'right_j3', 'right_j4', 'right_j5', 'right_j6', 'torso_t0']
position: [-0.0998505859375, -1.091619140625, 1.1765009765625, -2.6291396484375, 1.2778291015625, -2.7934296875, -0.018119140625, -0.355458984375, 0.0]
velocity: [-0.001, 0.007, -0.001, -0.001, -0.001, -0.001, -0.013, -0.001, 0.0]
effort: [0.032, 0.424, -30.164, 0.712, 14.584, 2.264, -1.22, 0.2, 0.0]
---
header: 
  seq: 1633831
  stamp: 
    secs: 1512620881
    nsecs: 925944694
  frame_id: ''
name: ['head_pan', 'right_j0', 'right_j1', 'right_j2', 'right_j3', 'right_j4', 'right_j5', 'right_j6', 'torso_t0']
position: [-0.0998505859375, -1.091619140625, 1.1763984375, -2.6291396484375, 1.2778291015625, -2.7934296875, -0.018119140625, -0.355458984375, 0.0]
velocity: [-0.001, -0.001, -0.006, -0.001, -0.001, -0.001, -0.001, -0.001, 0.0]
effort: [0.076, 0.476, -29.896, 0.624, 14.652, 2.296, -1.204, 0.192, 0.0]
---
header: 
  seq: 1633832
  stamp: 
    secs: 1512620881
    nsecs: 935914214
  frame_id: ''
name: ['head_pan', 'right_j0', 'right_j1', 'right_j2', 'right_j3', 'right_j4', 'right_j5', 'right_j6', 'torso_t0']
position: [-0.0998505859375, -1.0917216796875, 1.176294921875, -2.6291396484375, 1.2778291015625, -2.7936357421875, -0.01792578125, -0.355458984375, 0.0]
velocity: [-0.001, -0.008, -0.01, -0.001, -0.001, -0.003, 0.013, -0.001, 0.0]
effort: [0.02, 0.528, -29.688, 0.78, 14.696, 2.308, -1.228, 0.192, 0.0]
---
header: 
  seq: 1633833
  stamp: 
    secs: 1512620881
    nsecs: 945980306
  frame_id: ''
name: ['head_pan', 'right_j0', 'right_j1', 'right_j2', 'right_j3', 'right_j4', 'right_j5', 'right_j6', 'torso_t0']
position: [-0.0998505859375, -1.0917216796875, 1.1761923828125, -2.6291396484375, 1.2778291015625, -2.7936357421875, -0.01792578125, -0.355458984375, 0.0]
velocity: [-0.001, -0.003, -0.008, -0.001, -0.001, -0.016, 0.004, -0.001, 0.0]
effort: [-0.012, 0.476, -29.476, 0.872, 14.964, 2.36, -1.256, 0.22, 0.0]
---
header: 
  seq: 1633834
  stamp: 
    secs: 1512620881
    nsecs: 956008334
  frame_id: ''
name: ['head_pan', 'right_j0', 'right_j1', 'right_j2', 'right_j3', 'right_j4', 'right_j5', 'right_j6', 'torso_t0']
position: [-0.0998505859375, -1.0917216796875, 1.1761923828125, -2.6291396484375, 1.2779736328125, -2.7936357421875, -0.01792578125, -0.355458984375, 0.0]
velocity: [-0.001, -0.001, -0.008, -0.001, 0.003, -0.001, -0.001, -0.001, 0.0]
effort: [0.008, 0.636, -29.264, 0.824, 15.144, 2.388, -1.26, 0.2, 0.0]
---
header: 
  seq: 1633835
  stamp: 
    secs: 1512620881
    nsecs: 965926776
  frame_id: ''
name: ['head_pan', 'right_j0', 'right_j1', 'right_j2', 'right_j3', 'right_j4', 'right_j5', 'right_j6', 'torso_t0']
position: [-0.0998505859375, -1.0917216796875, 1.1761923828125, -2.6291396484375, 1.2779736328125, -2.7936357421875, -0.01792578125, -0.355458984375, 0.0]
velocity: [-0.001, -0.001, -0.002, -0.001, 0.01, -0.001, -0.001, -0.001, 0.0]
effort: [0.0, 0.636, -29.264, 0.824, 14.92, 2.376, -1.272, 0.192, 0.0]
---
header: 
  seq: 1633836
  stamp: 
    secs: 1512620881
    nsecs: 975927904
  frame_id: ''
name: ['head_pan', 'right_j0', 'right_j1', 'right_j2', 'right_j3', 'right_j4', 'right_j5', 'right_j6', 'torso_t0']
position: [-0.0998505859375, -1.0917216796875, 1.1761923828125, -2.6291396484375, 1.2781181640625, -2.7934296875, -0.01792578125, -0.355458984375, 0.0]
velocity: [-0.001, -0.001, -0.001, -0.001, 0.01, 0.012, -0.001, -0.001, 0.0]
effort: [-0.032, 0.584, -29.42, 0.804, 14.72, 2.288, -1.228, 0.208, 0.0]
---
header: 
  seq: 1633837
  stamp: 
    secs: 1512620881
    nsecs: 985934809
  frame_id: ''
name: ['head_pan', 'right_j0', 'right_j1', 'right_j2', 'right_j3', 'right_j4', 'right_j5', 'right_j6', 'torso_t0']
position: [-0.0998505859375, -1.0917216796875, 1.1761923828125, -2.6291396484375, 1.2782626953125, -2.7934296875, -0.018119140625, -0.355458984375, 0.0]
velocity: [-0.001, -0.001, -0.001, -0.001, 0.013, 0.01, -0.014, -0.001, 0.0]
effort: [-0.044, 0.688, -29.476, 0.736, 14.54, 2.232, -1.164, 0.188, 0.0]
---
header: 
  seq: 1633838
  stamp: 
    secs: 1512620881
    nsecs: 995929567
  frame_id: ''
name: ['head_pan', 'right_j0', 'right_j1', 'right_j2', 'right_j3', 'right_j4', 'right_j5', 'right_j6', 'torso_t0']
position: [-0.0998505859375, -1.0917216796875, 1.1761923828125, -2.6291396484375, 1.2782626953125, -2.7934296875, -0.018119140625, -0.355458984375, 0.0]
velocity: [-0.001, -0.001, -0.001, -0.001, 0.003, -0.001, -0.007, -0.001, 0.0]
effort: [0.0, 0.688, -29.476, 0.6, 14.292, 2.224, -1.176, 0.18, 0.0]
---
header: 
  seq: 1633839
  stamp: 
    secs: 1512620882
    nsecs:   5947116
  frame_id: ''
name: ['head_pan', 'right_j0', 'right_j1', 'right_j2', 'right_j3', 'right_j4', 'right_j5', 'right_j6', 'torso_t0']
position: [-0.0998505859375, -1.0917216796875, 1.1761923828125, -2.6291396484375, 1.27840625, -2.7934296875, -0.018119140625, -0.355458984375, 0.0]
velocity: [-0.001, -0.001, -0.001, -0.001, 0.007, -0.001, -0.001, -0.001, 0.0]
effort: [0.008, 0.688, -29.368, 0.668, 14.56, 2.268, -1.188, 0.208, 0.0]
---
header: 
  seq: 1633840
  stamp: 
    secs: 1512620882
    nsecs:  15947545
  frame_id: ''
name: ['head_pan', 'right_j0', 'right_j1', 'right_j2', 'right_j3', 'right_j4', 'right_j5', 'right_j6', 'torso_t0']
position: [-0.0998505859375, -1.0917216796875, 1.1761923828125, -2.6291396484375, 1.27840625, -2.7934296875, -0.01792578125, -0.355458984375, 0.0]
velocity: [-0.001, -0.001, -0.001, -0.001, 0.008, -0.001, 0.009, -0.001, 0.0]
effort: [0.008, 0.744, -29.316, 0.692, 14.628, 2.324, -1.22, 0.2, 0.0]
---
header: 
  seq: 1633841
  stamp: 
    secs: 1512620882
    nsecs:  25947729
  frame_id: ''
name: ['head_pan', 'right_j0', 'right_j1', 'right_j2', 'right_j3', 'right_j4', 'right_j5', 'right_j6', 'torso_t0']
position: [-0.0998505859375, -1.09182421875, 1.1761923828125, -2.6291396484375, 1.27840625, -2.7934296875, -0.01792578125, -0.355458984375, 0.0]
velocity: [-0.001, -0.007, -0.001, -0.001, -0.001, -0.001, 0.011, -0.001, 0.0]
effort: [-0.02, 0.744, -29.316, 0.78, 14.56, 2.296, -1.22, 0.2, 0.0]
---
header: 
  seq: 1633842
  stamp: 
    secs: 1512620882
    nsecs:  35933620
  frame_id: ''
name: ['head_pan', 'right_j0', 'right_j1', 'right_j2', 'right_j3', 'right_j4', 'right_j5', 'right_j6', 'torso_t0']
position: [-0.0998505859375, -1.09182421875, 1.1761923828125, -2.6291396484375, 1.27840625, -2.7934296875, -0.01792578125, -0.355458984375, 0.0]
velocity: [-0.001, -0.006, -0.001, -0.001, -0.001, -0.001, -0.001, -0.001, 0.0]
effort: [0.02, 0.636, -29.316, 0.76, 14.72, 2.324, -1.256, 0.188, 0.0]
---
header: 
  seq: 1633843
  stamp: 
    secs: 1512620882
    nsecs:  45924569
  frame_id: ''
name: ['head_pan', 'right_j0', 'right_j1', 'right_j2', 'right_j3', 'right_j4', 'right_j5', 'right_j6', 'torso_t0']
position: [-0.0998505859375, -1.0917216796875, 1.1761923828125, -2.6291396484375, 1.27840625, -2.7934296875, -0.01792578125, -0.355458984375, 0.0]
velocity: [-0.001, -0.001, -0.001, -0.001, -0.001, -0.001, -0.001, -0.001, 0.0]
effort: [0.064, 0.744, -29.42, 0.712, 14.672, 2.288, -1.236, 0.188, 0.0]
---
header: 
  seq: 1633844
  stamp: 
    secs: 1512620882
    nsecs:  55928280
  frame_id: ''
name: ['head_pan', 'right_j0', 'right_j1', 'right_j2', 'right_j3', 'right_j4', 'right_j5', 'right_j6', 'torso_t0']
position: [-0.0998505859375, -1.0917216796875, 1.176294921875, -2.6291396484375, 1.27840625, -2.7934296875, -0.01792578125, -0.355458984375, 0.0]
velocity: [-0.001, 0.007, 0.002, -0.001, -0.001, -0.001, -0.001, -0.001, 0.0]
effort: [0.032, 0.688, -29.528, 0.78, 14.584, 2.264, -1.24, 0.192, 0.0]
---
header: 
  seq: 1633845
  stamp: 
    secs: 1512620882
    nsecs:  65960566
  frame_id: ''
name: ['head_pan', 'right_j0', 'right_j1', 'right_j2', 'right_j3', 'right_j4', 'right_j5', 'right_j6', 'torso_t0']
position: [-0.0998505859375, -1.0917216796875, 1.176294921875, -2.6291396484375, 1.27840625, -2.7934296875, -0.01792578125, -0.355458984375, 0.0]
velocity: [-0.001, 0.001, 0.007, -0.001, -0.001, -0.001, -0.001, -0.001, 0.0]
effort: [0.008, 0.636, -29.58, 0.848, 14.652, 2.288, -1.208, 0.188, 0.0]
---
header: 
  seq: 1633846
  stamp: 
    secs: 1512620882
    nsecs:  75938709
  frame_id: ''
name: ['head_pan', 'right_j0', 'right_j1', 'right_j2', 'right_j3', 'right_j4', 'right_j5', 'right_j6', 'torso_t0']
position: [-0.0998505859375, -1.0917216796875, 1.176294921875, -2.6291396484375, 1.27840625, -2.7934296875, -0.01792578125, -0.355458984375, 0.0]
velocity: [-0.001, -0.001, -0.001, -0.001, -0.001, -0.001, -0.001, -0.001, 0.0]
effort: [0.02, 0.688, -29.58, 0.76, 14.764, 2.336, -1.236, 0.192, 0.0]
---
header: 
  seq: 1633847
  stamp: 
    secs: 1512620882
    nsecs:  85962294
  frame_id: ''
name: ['head_pan', 'right_j0', 'right_j1', 'right_j2', 'right_j3', 'right_j4', 'right_j5', 'right_j6', 'torso_t0']
position: [-0.0998505859375, -1.0917216796875, 1.176294921875, -2.6291396484375, 1.2782626953125, -2.7934296875, -0.01792578125, -0.355458984375, 0.0]
velocity: [-0.001, -0.001, -0.001, -0.001, -0.007, -0.001, -0.001, -0.001, 0.0]
effort: [-0.012, 0.584, -29.688, 0.824, 14.74, 2.336, -1.236, 0.2, 0.0]
---
header: 
  seq: 1633848
  stamp: 
    secs: 1512620882
    nsecs:  95965618
  frame_id: ''
name: ['head_pan', 'right_j0', 'right_j1', 'right_j2', 'right_j3', 'right_j4', 'right_j5', 'right_j6', 'torso_t0']
position: [-0.0998505859375, -1.0917216796875, 1.176294921875, -2.6291396484375, 1.2782626953125, -2.7936357421875, -0.01792578125, -0.355458984375, 0.0]
velocity: [-0.001, -0.001, -0.001, -0.001, -0.01, -0.003, -0.001, -0.001, 0.0]
effort: [-0.032, 0.584, -29.74, 0.668, 14.672, 2.328, -1.22, 0.172, 0.0]
---
header: 
  seq: 1633849
  stamp: 
    secs: 1512620882
    nsecs: 105933939
  frame_id: ''
name: ['head_pan', 'right_j0', 'right_j1', 'right_j2', 'right_j3', 'right_j4', 'right_j5', 'right_j6', 'torso_t0']
position: [-0.0998505859375, -1.0917216796875, 1.176294921875, -2.6291396484375, 1.2782626953125, -2.7936357421875, -0.01792578125, -0.355458984375, 0.0]
velocity: [-0.001, -0.001, -0.001, -0.001, -0.001, -0.016, -0.001, -0.001, 0.0]
effort: [0.0, 0.528, -29.74, 0.76, 14.764, 2.348, -1.24, 0.22, 0.0]
---
header: 
  seq: 1633850
  stamp: 
    secs: 1512620882
    nsecs: 115904951
  frame_id: ''
name: ['head_pan', 'right_j0', 'right_j1', 'right_j2', 'right_j3', 'right_j4', 'right_j5', 'right_j6', 'torso_t0']
position: [-0.0998505859375, -1.0917216796875, 1.176294921875, -2.6291396484375, 1.2782626953125, -2.7934296875, -0.01792578125, -0.355458984375, 0.0]
velocity: [-0.001, -0.001, -0.001, -0.001, -0.001, 0.006, -0.001, -0.001, 0.0]
effort: [0.0, 0.424, -29.74, 0.76, 14.784, 2.34, -1.236, 0.208, 0.0]
---
header: 
  seq: 1633851
  stamp: 
    secs: 1512620882
    nsecs: 125937999
  frame_id: ''
name: ['head_pan', 'right_j0', 'right_j1', 'right_j2', 'right_j3', 'right_j4', 'right_j5', 'right_j6', 'torso_t0']
position: [-0.0998505859375, -1.0917216796875, 1.176294921875, -2.6291396484375, 1.2782626953125, -2.7934296875, -0.01792578125, -0.355458984375, 0.0]
velocity: [-0.001, -0.001, -0.001, -0.001, -0.001, 0.014, -0.001, -0.001, 0.0]
effort: [-0.012, 0.476, -29.74, 0.872, 14.784, 2.296, -1.228, 0.188, 0.0]
---
header: 
  seq: 1633852
  stamp: 
    secs: 1512620882
    nsecs: 135919146
  frame_id: ''
name: ['head_pan', 'right_j0', 'right_j1', 'right_j2', 'right_j3', 'right_j4', 'right_j5', 'right_j6', 'torso_t0']
position: [-0.0998505859375, -1.0917216796875, 1.176294921875, -2.6291396484375, 1.2782626953125, -2.7934296875, -0.01792578125, -0.355458984375, 0.0]
velocity: [-0.001, -0.001, -0.001, -0.001, -0.001, -0.001, -0.001, -0.001, 0.0]
effort: [0.0, 0.476, -29.74, 0.76, 14.74, 2.316, -1.236, 0.22, 0.0]
---
header: 
  seq: 1633853
  stamp: 
    secs: 1512620882
    nsecs: 145937024
  frame_id: ''
name: ['head_pan', 'right_j0', 'right_j1', 'right_j2', 'right_j3', 'right_j4', 'right_j5', 'right_j6', 'torso_t0']
position: [-0.0998505859375, -1.0917216796875, 1.176294921875, -2.6291396484375, 1.2782626953125, -2.7934296875, -0.01792578125, -0.355458984375, 0.0]
velocity: [-0.001, -0.001, -0.001, -0.001, -0.001, -0.001, -0.001, -0.001, 0.0]
effort: [0.04, 0.476, -29.688, 0.78, 14.764, 2.324, -1.24, 0.2, 0.0]
---
header: 
  seq: 1633854
  stamp: 
    secs: 1512620882
    nsecs: 155932549
  frame_id: ''
name: ['head_pan', 'right_j0', 'right_j1', 'right_j2', 'right_j3', 'right_j4', 'right_j5', 'right_j6', 'torso_t0']
position: [-0.0998505859375, -1.0917216796875, 1.176294921875, -2.6291396484375, 1.2782626953125, -2.7934296875, -0.01792578125, -0.355458984375, 0.0]
velocity: [-0.001, -0.001, -0.001, -0.001, -0.001, -0.001, -0.001, -0.001, 0.0]
effort: [0.04, 0.584, -29.688, 0.78, 14.628, 2.328, -1.228, 0.2, 0.0]
---
header: 
  seq: 1633855
  stamp: 
    secs: 1512620882
    nsecs: 165959870
  frame_id: ''
name: ['head_pan', 'right_j0', 'right_j1', 'right_j2', 'right_j3', 'right_j4', 'right_j5', 'right_j6', 'torso_t0']
position: [-0.0998505859375, -1.0917216796875, 1.176294921875, -2.6291396484375, 1.2782626953125, -2.7934296875, -0.01792578125, -0.355458984375, 0.0]
velocity: [-0.001, -0.001, -0.001, -0.001, -0.001, -0.001, -0.001, -0.001, 0.0]
effort: [0.076, 0.528, -29.58, 0.804, 14.832, 2.316, -1.236, 0.192, 0.0]
---
header: 
  seq: 1633856
  stamp: 
    secs: 1512620882
    nsecs: 175934337
  frame_id: ''
name: ['head_pan', 'right_j0', 'right_j1', 'right_j2', 'right_j3', 'right_j4', 'right_j5', 'right_j6', 'torso_t0']
position: [-0.0998505859375, -1.0917216796875, 1.176294921875, -2.6291396484375, 1.2782626953125, -2.7934296875, -0.01792578125, -0.355458984375, 0.0]
velocity: [-0.001, -0.001, -0.001, -0.001, -0.001, -0.001, -0.001, -0.001, 0.0]
effort: [0.032, 0.584, -29.528, 0.804, 14.672, 2.304, -1.22, 0.192, 0.0]
---
header: 
  seq: 1633857
  stamp: 
    secs: 1512620882
    nsecs: 185944075
  frame_id: ''
name: ['head_pan', 'right_j0', 'right_j1', 'right_j2', 'right_j3', 'right_j4', 'right_j5', 'right_j6', 'torso_t0']
position: [-0.0998505859375, -1.0917216796875, 1.176294921875, -2.6291396484375, 1.2782626953125, -2.7934296875, -0.01792578125, -0.355458984375, 0.0]
velocity: [-0.001, -0.001, -0.001, -0.001, -0.001, -0.001, -0.001, -0.001, 0.0]
effort: [0.02, 0.584, -29.528, 0.78, 14.696, 2.308, -1.248, 0.188, 0.0]
---
header: 
  seq: 1633858
  stamp: 
    secs: 1512620882
    nsecs: 195942506
  frame_id: ''
name: ['head_pan', 'right_j0', 'right_j1', 'right_j2', 'right_j3', 'right_j4', 'right_j5', 'right_j6', 'torso_t0']
position: [-0.0998505859375, -1.0917216796875, 1.176294921875, -2.6291396484375, 1.2782626953125, -2.7934296875, -0.01792578125, -0.355458984375, 0.0]
velocity: [-0.001, -0.001, -0.001, -0.001, -0.001, -0.001, -0.001, -0.001, 0.0]
effort: [0.008, 0.636, -29.476, 0.76, 14.696, 2.304, -1.196, 0.208, 0.0]
---
header: 
  seq: 1633859
  stamp: 
    secs: 1512620882
    nsecs: 205917426
  frame_id: ''
name: ['head_pan', 'right_j0', 'right_j1', 'right_j2', 'right_j3', 'right_j4', 'right_j5', 'right_j6', 'torso_t0']
position: [-0.0998505859375, -1.0917216796875, 1.1761923828125, -2.6291396484375, 1.2782626953125, -2.7934296875, -0.01792578125, -0.355458984375, 0.0]
velocity: [-0.001, -0.001, -0.005, -0.001, -0.001, -0.001, -0.001, -0.001, 0.0]
effort: [-0.02, 0.636, -29.476, 0.712, 14.764, 2.288, -1.208, 0.2, 0.0]
---
header: 
  seq: 1633860
  stamp: 
    secs: 1512620882
    nsecs: 215936780
  frame_id: ''
name: ['head_pan', 'right_j0', 'right_j1', 'right_j2', 'right_j3', 'right_j4', 'right_j5', 'right_j6', 'torso_t0']
position: [-0.0998505859375, -1.0917216796875, 1.1761923828125, -2.6291396484375, 1.2782626953125, -2.7934296875, -0.01792578125, -0.355458984375, 0.0]
velocity: [-0.001, -0.001, -0.007, -0.001, -0.001, -0.001, -0.001, -0.001, 0.0]
effort: [-0.056, 0.636, -29.476, 0.76, 14.784, 2.288, -1.216, 0.192, 0.0]
---
header: 
  seq: 1633861
  stamp: 
    secs: 1512620882
    nsecs: 225921982
  frame_id: ''
name: ['head_pan', 'right_j0', 'right_j1', 'right_j2', 'right_j3', 'right_j4', 'right_j5', 'right_j6', 'torso_t0']
position: [-0.0998505859375, -1.0917216796875, 1.1761923828125, -2.6291396484375, 1.2782626953125, -2.7934296875, -0.01792578125, -0.355458984375, 0.0]
velocity: [-0.001, -0.001, -0.001, -0.001, -0.001, -0.001, -0.001, -0.001, 0.0]
effort: [-0.012, 0.744, -29.368, 0.76, 14.672, 2.296, -1.228, 0.208, 0.0]
---
header: 
  seq: 1633862
  stamp: 
    secs: 1512620882
    nsecs: 235931210
  frame_id: ''
name: ['head_pan', 'right_j0', 'right_j1', 'right_j2', 'right_j3', 'right_j4', 'right_j5', 'right_j6', 'torso_t0']
position: [-0.0998505859375, -1.0917216796875, 1.1761923828125, -2.6291396484375, 1.2782626953125, -2.7934296875, -0.01792578125, -0.355458984375, 0.0]
velocity: [-0.001, -0.001, -0.001, -0.001, -0.001, -0.001, -0.001, -0.001, 0.0]
effort: [0.02, 0.688, -29.528, 0.76, 14.72, 2.316, -1.228, 0.192, 0.0]
---
header: 
  seq: 1633863
  stamp: 
    secs: 1512620882
    nsecs: 245938707
  frame_id: ''
name: ['head_pan', 'right_j0', 'right_j1', 'right_j2', 'right_j3', 'right_j4', 'right_j5', 'right_j6', 'torso_t0']
position: [-0.0998505859375, -1.0917216796875, 1.176294921875, -2.6291396484375, 1.2782626953125, -2.7934296875, -0.01792578125, -0.355458984375, 0.0]
velocity: [-0.001, -0.001, 0.004, -0.001, -0.001, -0.001, -0.001, -0.001, 0.0]
effort: [0.0, 0.688, -29.476, 0.804, 14.808, 2.316, -1.228, 0.2, 0.0]
---
header: 
  seq: 1633864
  stamp: 
    secs: 1512620882
    nsecs: 255923460
  frame_id: ''
name: ['head_pan', 'right_j0', 'right_j1', 'right_j2', 'right_j3', 'right_j4', 'right_j5', 'right_j6', 'torso_t0']
position: [-0.0998505859375, -1.0917216796875, 1.176294921875, -2.6291396484375, 1.2782626953125, -2.7934296875, -0.01792578125, -0.355458984375, 0.0]
velocity: [-0.001, -0.001, 0.006, -0.001, -0.001, -0.001, -0.001, -0.001, 0.0]
effort: [0.008, 0.688, -29.528, 0.78, 14.696, 2.316, -1.26, 0.192, 0.0]
---
